id,business_id,name,address,latitude,longitude,stars,mainCategory,generalCategory
0,RFbMVekR8lU9tPJ8sWrwHg,Tavolino,619 Mount Pleasant Road,43.7042291,-79.3882299,4,italian,Southern European
1,gyFYZV4b_9TxG1ulQNi0Ig,Paramount Fine Foods,165 East Liberty Street,43.6384423,-79.4172366,2,salads,Southern European
2,aql8K6zVoJDGRJ3P-IgtpQ,Ume Fashion Sushi,1732 Kingston Road,43.6927912,-79.2626299,4.5,sushi,East Asian
3,c35qzLN6ItDpVIoj2uQW4Q,Ravi Soups,322 Adelaide Street W,43.6475853,-79.3920316,4.5,sandwiches,Northern European
4,SvUvVEr9cTjS-PJQ9MuckQ,Caffeine,1448 Lawrence Avenue E,43.742555,-79.314252,4.5,sandwiches,Northern European
5,IgQ8lSds3AgLFQsYsshUHQ,Gourmet Gringos,1921 Queen Street E,43.6690438622,-79.3044535463,3.5,mexican,Latin American
6,rVBPQdeayMYht4Uv_FOLHg,Gourmet Burger Company,843 Kipling Avenue,43.6332914,-79.5317683,3,burgers,American
7,4w-q_Wc77JzQZSIehKFTzA,Brockton Haunt,1150 College Street,43.652360563,-79.4339237061,4,sandwiches,Northern European
8,7MssGOl7IeOYCPn6uuSGxw,Bánh Cuon Thanh Trúc,2422 St Clair Ave W,43.6695111,-79.4824124,3.5,vietnamese,Southeast Asian
9,gU9EIsUkriQzDM91Sv3CtA,Kimchi House,586 Bloor St W,43.6649582,-79.4127496,4,korean,East Asian
10,8wpfZ3zJJ8LKO-z6C8hX-A,Pennylicks Gourmet Cafe,281 Augusta Ave,43.6559277,-79.4024678,4,sandwiches,Northern European
11,l7RCvKqA61Jzm98gaqIhvw,Brass Taps Pizza Pub,934 College St,43.6537865,-79.4261354,3.5,pizza,American
12,WOQNQx7SrMalJMXFENitpg,Ravi Soup,1533 Queen Street W,43.6393223111,-79.4425679049,4,sandwiches,Northern European
13,rz_MbxHYHWwZMT-F5fgfUA,Cusina Lounge,288 Wilson Avenue,43.7372891748,-79.4349258766,2,barbeque,American
14,qL2LoSauX4IG2KHtQevFUw,Lucky Lin's Restaurant,226 Markham Road,43.7443362,-79.2194828,3.5,thai,Southeast Asian
15,fZ5jJ_TOJHeaRi5UBdRvYw,Soup It Up,20 Bloor Street E,43.670313,-79.3864459,2,american,American
16,YH8Bn-7pLR-SFR8MCgQj1w,Jules Cafe Patisserie,617 Mount Pleasant Road,43.7041655,-79.3882122,3.5,french,Western European
17,4FE9FM8uvn9CV76Bxfxogw,T&T Roti Trinidad & Toronto Roti,Market 707,43.6521961365,-79.4055628113,4,carribean,African
18,VcZQXpk6vYAXwemOrC9PTw,Sagano,2035 Kennedy Road_ 14th Floor,43.776815,-79.282992,3,japanese,East Asian
19,dvbcUnKv2awsIxog7dO4vw,Hong Kong Bistro Cafe,472 Dundas Street W,43.6534452,-79.3968608,4,chinese,East Asian
20,7A1rTh8gGbJTyCIcbdb6dg,Rakia Bar,1402B Queen Street E,43.6647558,-79.3242952,4,canadian,Canadian
21,5Qoq8cif3nMCQUN-urH8YA,The Pickle Barrel,1 Yorkdale Road,43.7246888,-79.4538904,2.5,canadian,Canadian
22,DtzDpAflD41-rI6njywacw,Gino's Pizza & Wing Machine,2387 Yonge Street,43.7097839401,-79.3988528475,2,pizza,American
23,NoT7u2QNEvsVbH9MIzAzlw,Si Lom Thai Bistro,534 Church Street,43.6650073,-79.3808111,4,thai,Southeast Asian
24,1Epby_tsFDci4sP0Nbjwsw,Pho Vietnam,1280 Kennedy Rd,43.7577305,-79.2786325,3,vietnamese,Southeast Asian
25,yWwIUmeenyAO7nwc7U0U5A,Niwan Rolls King,3260 Midland Avenue_ Unit F101 & 102,43.804666915,-79.2867640033,3,chinese,East Asian
26,t_XpjR3_Cf7r9tj3w3vAbw,The Beech Tree,924 Kingston Road,43.6803871,-79.2888628,4,british,Northern European
27,yDJhScdD8cCCYfO4WNb-CQ,C'est Bon,2685 Yonge St,43.7168341,-79.4001043,3,chinese,East Asian
28,F-bdXFkJwwENiNpMTG2ntQ,The 3 Brewers,275 Yonge St,43.6555236,-79.3802224,3,burgers,American
29,c78Pat78fVUBFPXYeVvbaQ,Odd Seoul,90 Ossington Avenue,43.64619,-79.419686,4,korean,East Asian
30,2Xh-ZYlvm1SxcKdEaD51DA,Budapest Restaurant,1959 Gerrard Street E,43.6810473,-79.3100172,4.5,hungarian,Central European
31,IflW1yOEcNQrB2SWxHKoSg,The Poet Cafe,173 King Street E,43.6504042,-79.3711469,4,tapas,Southern European
32,UVRgPeUS5-pxGVK7OLl0Zw,The Hummingbird Caribbean Cuisine,1276 Queen Street  E,43.6636872,-79.3287741,3.5,carribean,African
33,2aIgbnGUg8VC0u9iXO-wnQ,O Sushi,6 Coxwell Avenue,43.6666242,-79.3168123,3.5,sushi,East Asian
34,4vTDFobDGaiI-diLF5TKkQ,D & Y Sushi,2861 Dundas Street W,43.665152,-79.4650118,3.5,japanese,East Asian
35,wWjDMAy3NjpuIN64fASGfQ,The Little Dog,566 College Street,43.6557382,-79.412564,3,hotdogs,American
36,VIsPmeZBMLkgbgw4UqCjUQ,AAA Bar,598 Gerrard Street E,43.6658422,-79.3519276,3,barbeque,American
37,z8H4Mdzl4jS9pYswj6Jf9w,Buca Yorkville,53 Scollard Street,43.6721423,-79.3893921,3.5,italian,Southern European
38,a9aW5e731lplWGHUZ02-zQ,Chino Locos Original,4 Greenwood Avenue,43.6644821,-79.3255005,4,mexican,Latin American
39,k7D1eFxN-_Ry491C-RiMpw,Wild Wing,1571 Sandhurst Circle,43.8092547,-79.2696046,2,american,American
40,ZcO6xKyETimcLjAkDiLQPQ,Manhattans Hand-Made Burgers,333 Bay Street,43.6503406,-79.3805207,3.5,burgers,American
41,Pf8flcMF3hco_rG0EdUGog,Bbreakfasts,1121 Bay Street,43.6680033,-79.3885578,3,burgers,American
42,A4aqz0pfgMX-votNbSZQDA,Modus Ristorante,145 King Street W,43.6474686,-79.3839517,3.5,italian,Southern European
43,IZI9BdElfGB-WcHpd7Wg7Q,Pho Dai Nam,462 Birchmount Rd,43.7069859,-79.2681482,4,vietnamese,Southeast Asian
44,vl_LNtimh_DMxZ1YQfl8aA,Magic Oven,127 Jefferson Avenue,43.6396613343,-79.4219483696,2.5,pizza,American
45,xNNAfZJkLZlAeS-I7-QwgA,Pho Tien,358 Bathurst Street,43.6527045,-79.406407,3.5,vietnamese,Southeast Asian
46,fo_w5L2x00wS4NMHzE8oyg,Sandoozles Smokehouse & Pub,709 Mount Pleasant Road,43.7074876432,-79.3896615989,2.5,barbeque,American
47,ZCYCNWA98718SZ0A4bHD7A,Dear & Fro,3300 Midland Avenue_ Unit 39,43.8067504,-79.2888581,3.5,korean,East Asian
48,x4q_kJ-dvaHL7dkpZKJUdg,Bob's Bulgogi,105 Victoria Street,43.652139,-79.377507,4,korean,East Asian
49,4ZNr_HOSCXMCzY4xN4WACA,Toucan Tacos,686 Queen Street E,43.6587449,-79.3507401,2.5,mexican,Latin American
50,G2yY7OdcwX71jCkKP1-Efg,Potman Hotpot,633 Silver Star Boulverd_ Unit 110-111,43.8219517,-79.2984027,4,hot pot,East Asian
51,l07ctcrDMV--TYwe3uzebQ,Huh Ga Ne,19 Finch Avenue W_ Unit A,43.7791694,-79.4172467,3.5,korean,East Asian
52,-PKUAor_Nz_IaNjP_jIwyA,Playa Cabana - Hacienda,14 Dupont Street,43.6770684,-79.3981842,3.5,mexican,Latin American
53,cbxyYUsJMWk1oEgzfoJ28A,Il Gusto Ristorante,796 College St,43.6547935,-79.4213405,3,italian,Southern European
54,I57O9xjahLTtx22El93f4g,Arepa Market,214 Augusta Ave,43.654787,-79.4021369,4,sandwiches,Northern European
55,Pejzx2YgZvywGXJo-thfnw,Pepper Chili,368 Avenue Broadview,43.665329,-79.3528595,3,chinese,East Asian
56,e084b0uMSnEP7-PYlmAKbA,Lick's Homeburgers & Ice Cream,900 Warden Avenue,43.7294443,-79.288563,2,burgers,American
57,gS9MphCeLc9JzUrEOEA4_Q,1 Love Kitchen,247 Queen Street W,43.6502718,-79.3887054,3,carribean,African
58,j76FtDF70w93QKrcnT9AMA,Matahari Grill,39 Baldwin St,43.6558884,-79.3935888,3,malaysian,Southeast Asian
59,D5oLn4j7eezCAoOsuYr8jA,ND Sushi & Grill,370 College St,43.6572686,-79.4046849,4,sushi,East Asian
60,a23aElEgvCFhxdtqdzh7bg,Bow Thai Restaurant,1970 Queen Street E,43.6698968,-79.3015456,3,thai,Southeast Asian
61,rl137V_5Hx0cJAV4beVdhA,Campechano Taquería,504 Adelaide Street W,43.6458109,-79.4007718,4,mexican,Latin American
62,BZmZ9TTYkDe-Nm2UNAYzQQ,The Friendly Thai,500 Queen St W,43.647936,-79.4012531,2.5,thai,Southeast Asian
63,uFNM9ICvZN0TEbURIpiIDQ,Chinese Dumplings,645 St. Clair Avenue W,43.681847,-79.424241,3.5,chinese,East Asian
64,s8N66BJ9P-sqhisX47o1Sg,Roti Time,2542 St Clair Ave West,43.6682846,-79.487228,3.5,indian,South Asian
65,7UPTUpex3O1Gav3td7GOEw,South St Burger Co,1090 Don Mills Rd,43.7364416,-79.344201,3,burgers,American
66,ogUiKg4hL01zt2o2M5IZ3w,Ame,19 Mercer St,43.6456899,-79.3905064,3.5,japanese,East Asian
67,ck-5NFpK8CQsUMD4LHaf5w,Swan Restaurant,892 Queen Street W,43.6452774,-79.4149396,3.5,american,American
68,qhagbvK-Pv4cGGghJ7gXBA,Konnichiwa,31 Baldwin Street,43.6558544,-79.3932809,4,japanese,East Asian
69,AakkkTuGZA2KBodKi2_u8A,Pho Phuong,1603 Dundas Street W,43.6496743,-79.4351157,3.5,vietnamese,Southeast Asian
70,h8bJb1dIwPmUGiqstCy7lw,Apalla,811 Queen Street W,43.6460848,-79.4090059,4,indian,South Asian
71,OP9iJKhKQ39PJnhk0G_ZrA,McDonald's,3030 Don Mills Road E,43.7853540962,-79.3512418086,3,burgers,American
72,iByQmTmTdO7hP4n1grSSWQ,Rikishi Japanese Restaurant,833 Bloor Street W,43.6624171,-79.4228715,4,japanese,East Asian
73,5SiHMFPhwuWZ4VaZB13Hzw,Poutini's House of Poutine,617 King Street W,43.6441190136,-79.4009630755,4,poutine,Canadian
74,gy5pr5bFAjOL5rERSdMCLg,The Keg Steakhouse + Bar - York Street,165 York Street,43.6499945,-79.3839517,4,steakhouse,American
75,OJ6zfenoK-eBNI7vvNrOsg,Fieramosca,36A Prince Arthur Avenue,43.6695529,-79.397355,4.5,italian,Southern European
76,PlNwT37ZahtL-3GRHQ7mVg,Cardinal Rule,5 Roncesvalles Avenue,43.6390827,-79.4460771,3.5,american,American
77,rVdadAcPeUXjcIHxoO8cGQ,Dukem Restaurant,950 Danforth Avenue,43.6803779,-79.3381599,4,ethiopian,African
78,-hXocgx4xqs9dv_l0jiZZg,Rawlicious,785 Bathurst Street,43.6646402,-79.41087,4.5,salads,Southern European
79,3MZ_H6D9jQFX1tBUIh_Iiw,Simply Thai Cuisine,2253 Bloor Street W,43.6506762,-79.4775585,3,thai,Southeast Asian
80,UGG8EIfEfAIbyGhgLIX7Mw,Thai Bright,109 McCaul Street,43.654110935,-79.3911450964,3.5,thai,Southeast Asian
81,Wgx9dIK-EPS9xl62fSZlFw,Café Taste,1330 Queen St W,43.6416745,-79.4316079,3.5,tapas,Southern European
82,ldUwLnF4grOEXE-LXN94QA,Kalyvia On the Danforth,420 Danforth Avenue,43.6777591,-79.3509223,3.5,greek,Southern European
83,l8zJEkw4cNOcNzaLR_Gctw,Tandori,777 Bay St,43.6604836,-79.3844582,1.5,indian,South Asian
84,LOEZ8zDGly7s-laA1OBIEw,Bricco Wine Bar,3047 Dundas Street W,43.6654047,-79.4710144,3.5,italian,Southern European
85,fJAWn77rOLON08wli_AQ2Q,Burger King,1607 Birchmount Road,43.7638012,-79.2912268,3,burgers,American
86,3HwLDQhV8nS4mgWFtRMA5A,Striker,31 St Joseph Street,43.6656779452,-79.386706464,2.5,american,American
87,Xt2aQqrMzuABBvb82sK-Hw,McDonald's,121 Front Street E,43.6494672,-79.3704014,1.5,burgers,American
88,op0GPkK8YtpTQxSq80lEpw,Pizza e Pazzi,672 St. Clair Avenue W,43.6820353,-79.4254574,3.5,italian,Southern European
89,a7Zcx-qVTLrMvBaod7MXbw,Porto Rotisserie House,1370 St Clair Avenue W,43.67662,-79.4497558,3.5,portuguese,Southern European
90,vmQKPYE46edrPQDc1vBMDA,City Fried Chicken and Pizza,990 Danforth Avenue,43.6804889,-79.3375786,4,pizza,American
91,oYCx5gO4KkkgYPnglSkk5g,PROP,770 St Clair Ave W,43.6812824,-79.4287282,3,italian,Southern European
92,_qh5RDI84nVGwZiYDvCoyw,Al Pastor,2982 Dundas Street W,43.665455,-79.468919,3,mexican,Latin American
93,fjta0a2h-LYWOWBgJGVpwg,Thai Shan Inn,2404 Dufferin Street,43.6969621382,-79.4510810184,3,thai,Southeast Asian
94,v-z5Tw5ds2sEvtk3Kj5x4w,Yupdduk,24-30 Finch Avenue W,43.7793264,-79.4175692,3,korean,East Asian
95,wYFQMJytgwoMuan0Aa4ByA,Ivory Thailand,81 Church St,43.6517653,-79.3750185,3.5,thai,Southeast Asian
96,X5mxIQ1Ry_58QzuyUxV_Eg,Joyous Thai,1500 Royal York Road_ Unit 20 21,43.6916836,-79.5319995,2.5,thai,Southeast Asian
97,3uIXuw878fNjxZ2Li1diFg,The Hogtown Vegan,1056 Bloor St. W,43.6605669,-79.4325733,4,southern,American
98,fN_I3jP7RD2llubTvhXtKQ,The Good Fork,2432 Bloor Street W,43.6495697,-79.4840826,4,canadian,Canadian
99,LrrJW6ejsVL7hADfFy87Eg,EatThai,5195 Yonge Street,43.7704408,-79.4129859,3.5,thai,Southeast Asian
100,U0S6YqfxHWWJBWPwjUXcLQ,Wendy's,4 Lebovic Avenue,43.7261916,-79.291823,3,burgers,American
101,0cITagiY3ytdRh6shZInxw,Truly Thai Cuisine,2364 Yonge Street,43.7086903,-79.3990274,2.5,thai,Southeast Asian
102,dDYbnQHBi0dqZH2kmiNaSA,Pho Jade,1208 Bloor Street W,43.6593265,-79.4384773,3.5,vietnamese,Southeast Asian
103,VADsDteqi8ac5-egcloI3w,Elite Restaurant & Banquet Hall,1118 Finch Avenue W,43.7672739,-79.4747079,4,russian,Multicultural
104,aO94Wsh2VzrgdCXu26OJEQ,The Greek Grill,128 O'Connor Drive,43.693571,-79.350145,4,greek,Southern European
105,rb6QPjjuogZ9_3S6oGsgGQ,White Elephant Restaurant & Bar,366 Queen Street E,43.6558084931,-79.363685064,4,thai,Southeast Asian
106,_HqZL3gK98-Q4ObAoyM1aw,Rose and Sons Swan,892 Queen Street W,43.6450406075,-79.414875227,4,american,American
107,0gj8bpTF6I6T_C5xyBUafw,Arden Fast Food,3833 Midland Ave_ Suite 9C,43.8139148,-79.2915342,3,chinese,East Asian
108,UeyTFWMLCopiZQ9ZIfmXfA,Ici Bistro,18 St. Thomas Street,43.6688084,-79.3905524,3,french,Western European
109,CPZwngSfv-5OpQ3iQZOrsQ,Tim Hortons,1277 York Mills Road,43.7606862502,-79.3266298622,2.5,sandwiches,Northern European
110,1GWSJbsVfKCPXIYPap6nIA,Oishii Japanese Ramen,3280 Midland Avenue,43.8060074142,-79.2881869152,2,japanese,East Asian
111,yZsVStKgRul_oNjHsV99LQ,Kibo House Sushi and Cafe,701 Saint Clair Avenue  W,43.6814409,-79.4263448,3,sushi,East Asian
112,yUO7zPWGbumX42UzjbuBmw,Subway,548 Church Street,43.6654189,-79.3810194,2,sandwiches,Northern European
113,S5bNE4Pmin8OQUMOFod8bQ,Ciao Wine Bar,133 Yorkville Avenue,43.6704754,-79.3936453,3,italian,Southern European
114,NOz8W_cUV3Dw5yLgFkKLGw,The Yellow Griffin,2202 Bloor St W,43.6514389,-79.475629,3,burgers,American
115,X29BLACjBhOg_P2USv07dA,Trendee Chinese Cuisine,66 Overlea Boulevard,43.7082593775,-79.3425049654,3.5,chinese,East Asian
116,js9rQZAlA5rr7oSBRRcCDw,Dimmi Bar & Trattoria,140 Cumberland St,43.6700945,-79.3926771,3.5,italian,Southern European
117,o37mk94tQ3UyQOOxDXQo8A,Grill Cottage,1468 Queen Street W,43.6406358682,-79.4367561489,4.5,falafel,Middle Eastern
118,TLfBvo601IBNSkvymQnnZQ,Dominos,107 344 Front Street W,43.6433776,-79.3920218,1.5,pizza,American
119,U1LB3sRMGTu_h7Sf9QdNoA,Le Neuf Café,9 Clarence Square,43.6447463,-79.3937551,3.5,french,Western European
120,Dvhg57y-SOcKty6WTG1XDw,Boil King,333 King Street W,43.646035,-79.3911778,4,cajun/creole,Western European
121,UrV2WIaiFHRI8xxOZ00g0w,Parlor Foods & Co,333 King Street W,43.6461508,-79.3912498,4,canadian,Canadian
122,bY-4nSmbowNdAdrch0P9Tw,Corks Beer & Wine Bars,93 Laird Drive,43.7056909,-79.3616027,4.5,canadian,Canadian
123,C75UPn41Uq2DJNCP74uTDw,Liberty Noodle,220 Yonge Street,43.6572682,-79.3814178,2,japanese,East Asian
124,hJda5g5v_2rT3D-3mSf7cQ,Tequila Sun Rise Cantina & Grill,212 Adelaide Street W,43.6485947,-79.3874525,2.5,mexican,Latin American
125,jWfmC3iXaPLBmrAFfK2QeA,Sakura Japanese Restaurant,4700 Keele Street,43.7742392,-79.5014316,2,japanese,East Asian
126,7yRLFyhvaY5Nck3iSKDmxQ,Edo,2901 Bayview Avenue,43.7690883,-79.3854655,3.5,japanese,East Asian
127,mdBaC30kgcWfAyF1O8anOw,Kim Bo Restaurant,358 Bathurst Street,43.6527094,-79.4063126,4,vietnamese,Southeast Asian
128,im8sxT2V-drSvxP17qdb2A,Sicilian Sidewalk Cafe,712 College Street,43.6553573,-79.4185968,3.5,italian,Southern European
129,as5StqV9pbDhUM0AYP_j9g,Kim Moon Bakery,438 Dundas St W,43.6535087,-79.3957156,3.5,chinese,East Asian
130,rubQx8VlHZT4_IyMUs75YA,South St. Burger,2383 Yonge Street,43.7097968,-79.398598,3,burgers,American
131,y4GgOCMonFP5G1eZEdbcYg,Zante Bistro,1950 Gerrard Street E,43.680955053,-79.3104485795,4,greek,Southern European
132,Y1jrsVAWK1bFC_s1CJmICw,Go Topoki,5 Northtown Way_ Unit 5,43.7748838435,-79.4140006774,4,korean,East Asian
133,23Dg53bT4WIJDK26WPR7vQ,Maru & Maru Sake Bar,5347 Yonge Street,43.7748988251,-79.4141480213,3.5,japanese,East Asian
134,50LSp1WnwMA3PMXXvXDj0Q,Pizzaiolo,865 York Mills Road,43.7540931,-79.3495479,3,pizza,American
135,uAPMb111euz5jJF8_VeO2A,La Casita Chinese Eatery,405 Dundas Street W,43.6535911,-79.3948254,3,chinese,East Asian
136,SrnFpeMfMB40Rd6Z9N1lbg,Home Sweet Home,1 Whitehorse Road,43.7552182,-79.4685428,4.5,turkish,Middle Eastern
137,gaSP19bI-CJZ-yRA4lvoUw,Sushi Island,571 College Street,43.6550859,-79.4128022,2.5,sushi,East Asian
138,5f13F6HZgLoARSdXECfLAw,Real Thailand Restaurant,570 Bloor Street W,43.6652462,-79.4118851,3.5,thai,Southeast Asian
139,mHV6YRI_KWIUsVtI4qXJkg,China Town,1790 Jane Street,43.7064074,-79.5048956,2,chinese,East Asian
140,xVHzCbDWCwmyavF5PgJRmg,Not Just Noodles,570 Yonge Street,43.6649906,-79.3847491,3.5,chinese,East Asian
141,l57pPj8XxRxmzsplMCeV9w,The Gem,1159 Davenport Road,43.6746075642,-79.4320964813,3,american,American
142,BrMqGmsqIqa_Qjyk4EiFGA,Colombo's Pizza,1794 Danforth Avenue,43.6845136,-79.3188248,3,pizza,American
143,DV341cpTqEDdT3_iST3Sgw,3 Eggs All Day Pub & Grill,936 Eglinton Avenue W,43.7005187,-79.4284633,3,american,American
144,vfyoss5fp967SopQ2Zt-eg,Lin's Chinese Bun,4188 Finch Avenue E_ Unit 18,43.804434,-79.288432,4,chinese,East Asian
145,TVLAvAFx0FqAkKGKHVjHpQ,Freshii,140 Spadina Avenue,43.6477264,-79.3962471,3,sandwiches,Northern European
146,2jfkLlCWymebnlveEPLUbg,Hero Certified Burgers - Spadina & Lonsdale,413 Spadina Road,43.6885283463,-79.4125498689,3,burgers,American
147,7IOt1SahnsyuMwTcuZgFLQ,Melt Grilled Cheese,300 Richmond Street,43.6490226,-79.3915508,3,sandwiches,Northern European
148,bl0GSLa6DvLXCvhAw5DVUg,The Pie Commission,887 Dundas Street W,43.6509535,-79.4117579,4.5,canadian,Canadian
149,jzveTy7ogH7cg9axZ78ENg,Bar Koyoi Restaurant North York,5347 Yonge Street,43.7749233,-79.4142464,3,japanese,East Asian
150,DiCMYxT69I22-1nfsvYAJQ,Gourmet Burger Co,482 Parliament Street,43.6646828,-79.3682793,3.5,burgers,American
151,mES9E5K4HbYoPFXGv0pUuw,Como En Casa,565 Yonge Street,43.6653391464,-79.3844996651,4,mexican,Latin American
152,6xowh_GdOsRrz9QWN6nMxA,Uncle Tetsu's Japanese Angel Cafe,191 Dundas Street W,43.6549231,-79.3867949,3.5,japanese,East Asian
153,LMyeQgw0qO91iCnkltDI4A,teashop 168,316 College,43.6576853,-79.4023603,3.5,taiwanese,East Asian
154,FQr_scgz9a4sXTdRS4d3mg,Paramount Fine Foods,1250 Bay Street,43.6706282,-79.3903515,3,lebanese,Middle Eastern
155,rsiW1dz9FD1EfNPoDfaDDQ,Thai Green Chili,1059 Bloor St W,43.6603506,-79.4324956,2.5,thai,Southeast Asian
156,BZInFfFFCne6n3zmzg8zzA,Starbucks,Scotia Plaza_ 40 King Street W_ Unit M128,43.6497992662,-79.3793812386,3.5,sandwiches,Northern European
157,LnnYY4EmHGl_r1dQiqy5rw,Pita Ikram,530 Oakwood Avenue,43.6923149,-79.4409185,3.5,falafel,Middle Eastern
158,eMmIawsYRgi0S_4dBsOPoA,The Jerk Spot,799 King Street W,43.6428729,-79.4070948,2,carribean,African
159,ZTrkiSudc8vL3NB2N7XFJw,Nostalgia Coffee Company,855 O'Connor Drive,43.7068179377,-79.3116290867,4,sandwiches,Northern European
160,nIskoP3-_MttghA3d-eYBA,La Chilaca Taqueria,214 Augusta Avenue,43.654581,-79.4024681,4.5,mexican,Latin American
161,dZVMp70AuSa4dQPvx3J4ow,Gourmet Burger,9 Charles Street W,43.6685154,-79.3868092,3,burgers,American
162,E4IXpaTXmaE3h48Ag2YUAw,Ravi Soups,2535 Dundas Street W,43.661585,-79.455197,4.5,sandwiches,Northern European
163,jo4nS-avhKux4IFwFCsrvw,California Thai,10 Dundas St E,43.6570197,-79.3804447,2,thai,Southeast Asian
164,YRWGkDCSVVu6LU5tOjMGyQ,Swiss Chalet Rotisserie & Grill,2955 Bloor St W,43.647743,-79.5083723,2.5,american,American
165,LWI8ULsw0X1FpInux4Tg5Q,Martino's Pizza & Asian Fusion Kitchen,178 Dupont Street,43.675568,-79.4036442,4,pizza,American
166,s-p2hqOR47ffQKYzZtMV-A,Kenly's Noodle,4227 Sheppard Avenue East_ Unit B1,43.785592,-79.2774536,2.5,chinese,East Asian
167,09RUPz3SuUMtha65nUH3_g,Taste of Mediterranean,115 Front Street E,43.6494762,-79.3707486,1.5,greek,Southern European
168,PEFYGIOCMSTSga1_qx2C1w,McDonald's,1890 Avenue Road,43.7325229,-79.4198059,2,burgers,American
169,6a7zecn8W8r9dDWwQVb6aA,Novecento,1228 Saint Clair Avenue W,43.6775605,-79.4451386,4.5,italian,Southern European
170,cfT6rmhWvUnbEqfKXhwxYw,Cafe Neon,1024 Queen Street W,43.6442043,-79.4196947,4,sandwiches,Northern European
171,x-38eLYLb2wi3jsbd8QOAg,Parma Pizza,716 Scarlett Road,43.695468,-79.520634,4.5,pizza,American
172,xjYAqZKDP3xnWOeJ4FGs_A,The O Bar,712 Bloor Street,43.6638646,-79.4179249,4,korean,East Asian
173,kIrjc7PrdoSpEubQ_aszdw,Green Eggplant Restaurant,1968 Queen Street E,43.6700296,-79.30173,3.5,canadian,Canadian
174,02BXFKzu1rgaYulNGYvi6g,Matsuda Japanese Cuisine,5651 Steeles Avenue E,43.831795518,-79.2663108185,3,japanese,East Asian
175,kstK3o4ZLOEsWyy_vPVQrg,Steady's Jamaican Home Cooking,852 Pape Avenue_ Unit 2,43.6839915,-79.3467715,4.5,carribean,African
176,n-y6kw55Tn-5Get2TkWgeA,Rebozos,126 Rogers Road,43.6848497319,-79.4490480423,3,mexican,Latin American
177,HUmMi38yNUdC9scTW4oJjQ,Thai Island,TD Centre Foodcourt_ 100 Wellington Street W,43.6482242111,-79.3834749869,3,thai,Southeast Asian
178,lbdW9Ex2xjYbVJaHgWwe7A,Dundas Garden,473 Dundas St W,43.6530506,-79.3968456,1.5,chinese,East Asian
179,0BW6h-igJinzbqc-prYUaQ,Hy's Steakhouse & Cocktail Bar,120 Adelaide Street W,43.6497314445,-79.3829549791,3.5,steakhouse,American
180,3xUoXuEgJhHlSgBsSfKeCQ,W Burger Bar,10 College Street,43.6614908,-79.3835448,3.5,burgers,American
181,NYpnwc4yt44SkcBb9dlhtA,Bourbon St Grill,1800 Sheppard Avenue E_ Unit F004,43.7787787,-79.3447208,3.5,barbeque,American
182,YPLJPAHy_byhlrwceIbN9Q,Tim Hortons,246 Bloor Street W,43.6682968,-79.3977184,2.5,sandwiches,Northern European
183,e-YnECeZNt8ngm0tu4X9mQ,Korean Grill House,369 Yonge Street,43.6585068,-79.3814547,3,korean,East Asian
184,guFIqSvxlwQnFfe301wg3A,Duggan's Brewery,1346 Queen Street W,43.641536,-79.432141,3,canadian,Canadian
185,ECPWFe93D_VWHfsnkVBydg,Rustic Cosmo Cafe,1278 Queen Street W,43.6420723,-79.4299737,3.5,sandwiches,Northern European
186,7NaoYUOJ3HAPKMt3aF91hw,Sushi D,671 College Street,43.6550406,-79.4170586,3,sushi,East Asian
187,5X3dzKWnBdV-KmxdGEPb_Q,Chito's Pizza,1308 Bloor Street W,43.6585058,-79.4425128,4,pizza,American
188,8VHLeEC7kH6nwn1HnqwMKQ,Dang Good BBQ,,43.6623015,-79.3894938,5,barbeque,American
189,G9jwU3O0HOXTHt43eJi2mg,Imanishi Japanese Kitchen,1330 Dundas Street W,43.6496911,-79.4265439,4,japanese,East Asian
190,EpHPxId6RNVHbYLqBGQiSQ,Popeyes Louisiana Kitchen,2000 Eglinton Avenue E,43.7290356355,-79.2843654379,2.5,cajun/creole,Western European
191,aHQOfN-PRlx_4dnJ6fPZXA,Patties Express,4 Elm Street,43.6578559,-79.381882,4,carribean,African
192,nYg54aDTwBvO022bqZgjRw,Hero Certified Burgers - Beaches,2018 Queen St. E.,43.6703477,-79.2990918,2.5,burgers,American
193,nb2Bpt5uGGZvNhnkEGMnpw,The Irv Gastro Pub,195 Carlton Street,43.6635399,-79.3705826,4.5,burgers,American
194,eUi3O-8Gqh_nJ_ZhO-25gQ,Get & Go Burrito,1077 Wilson Avenue_ Unit 8,43.726656,-79.480365,4,mexican,Latin American
195,MOB5oCEKCw3S76SsiuQjqA,Mary Be Kitchen,21B St. Clair Avenue W,43.6877288,-79.3950737,4.5,canadian,Canadian
196,KX0Dt0CcPdWrSn6ThJ-6Lw,Shawarma Grill Xpress,1197 The Queensway_ Unit 2,43.6216183124,-79.5225061194,3.5,lebanese,Middle Eastern
197,-uqIK0vIzD_7PrnCgwhlHA,The Golden Burrito,2215 Steeles Avenue W_ Suite 2,43.7852360621,-79.4776351599,3.5,mexican,Latin American
198,DQbbE26lEFq4rEFSaEEhRg,Swiss Chalet Rotisserie & Grill,853 Milner Ave,43.8001625,-79.1984323,2,american,American
199,4Yf6bdaOPPz2TkA-LY91Ig,Sushi Shop,175 Bloor Steet E,43.6711027964,-79.3822642102,3,sushi,East Asian
200,9toB8IcyYEGFCDY_kPk_GQ,Minky's Bagel Bar & Deli,297 Port Union Road,43.7896657,-79.1399388,3,bagels,Central European
201,Avh4vPVXkYPcHEbRs1ZdBQ,Bello Bio,511 Mount Pleasant,43.7017624,-79.387492,4.5,italian,Southern European
202,bDgmLfAh_TWRCHEYC8hbpQ,The Keg Steakhouse & Bar,560 King Street W,43.6448066526,-79.3990968747,4,steakhouse,American
203,Olp4uGp0MZEAScKtwWtQYQ,Jaspers Deli,55 University Avenue,43.6467318,-79.3839517,4,sandwiches,Northern European
204,6XszstcESgKljj1U11PVDQ,Subway,5150 Yonge Street_ Unit F3,43.7686976,-79.4131633,2.5,sandwiches,Northern European
205,-ug8U8rDNpW5s_4qCowtzg,Hastings Snack Bar,5 Hastings Avenue,43.6637488,-79.3288863,4.5,polish,Central European
206,zBtR7328Vuts_7B9qm3DVQ,Aunt Elsie's Carribean Kitchen,2689 Eglinton Avenue E,43.7362402,-79.2499133,4.5,carribean,African
207,V_kUalXREclnHWjWr5GUNw,Americana Hot Dog Co,1036 Kingston Road,43.6807677,-79.2845855,4.5,hotdogs,American
208,XTc_HX2KbKzkKrRklZUDiA,Thai One On,1911 Ellesmere Rd,43.7740428,-79.2412004,2,thai,Southeast Asian
209,U-_yRdZqs5W2HNrzD_xvkQ,Falafel Royal,3308 Lake Shore Boulevard W,43.5968402,-79.524241,4.5,falafel,Middle Eastern
210,zrYpLdnGKA_EmOhgRCy_vg,Pomegranate Restaurant,420 College Street,43.6567916,-79.4069317,4,persian/iranian,Middle Eastern
211,BAgrtfTrTrRw9F1HiZBJcQ,Thai One On,142 Dundas St W,43.6555662,-79.3849523,2,thai,Southeast Asian
212,2gDHQELrlq3jVuZZfJeWUg,Chop Chop,771 Dundas Street W,43.6519395,-79.40702,4,chinese,East Asian
213,0rjArZxONWhzsr58ddAeEQ,Fat Bastard Burrito Co,2400 Bloor Street W,43.6497757793,-79.4830290513,2.5,mexican,Latin American
214,Vlg8fVcmr6uzSLQF7SaDGg,Druxy's Famous Deli,4580 Dufferin Street,43.769681,-79.4676433,2.5,sandwiches,Northern European
215,5BPv_vAnRp5EKdmacqvrLw,Pi-Tom's Thai Cuisine,6 Alexander Street,43.6631138977,-79.383313623,2.5,thai,Southeast Asian
216,-EFDz-s9QUWJbFIp16O_3g,Tim Horton's,150 N Queen Street,43.6202565376,-79.554585591,2,sandwiches,Northern European
217,mA3kz245czbdqAyJMg9BsQ,La Veranda Osteria,946 Royal York Road,43.6476149,-79.5118194,3,italian,Southern European
218,aFzKjg_Q_k8w5Rjh0x8yVQ,Deep Blue Fish & Chips,749 Broadview Ave,43.6758624,-79.3585217,3.5,british,Northern European
219,zXO__HLv4CqHJ7LJNUOc2A,Red Dice,884 Danforth Avenue,43.6800529,-79.3398363,3,pizza,American
220,msJmDVMEd2fOnO5GEuWsoA,Magic Oven,360 Queen Street East,43.6559734,-79.3639722,3,pizza,American
221,B44Cx8VNrRlrgdfXHuaq-w,Pastalicious,171 E Liberty Village_ Unit135,43.6383173,-79.4192086,3,italian,Southern European
222,iDT6FpWCjJXSHUMFg94UEw,Pho Asia 21,1208 King Street W,43.6390867,-79.4278526,3,vietnamese,Southeast Asian
223,u3wWKIIdTZuAYqa2jHJoxA,Konner Chinese Restaurant,3250 Midland Avenue_ Unit 126,43.8050177706,-79.2876219749,3.5,chinese,East Asian
224,7HrCELR6uv2HkgL7aT_hcQ,Chiado,864 College Street,43.6541868418,-79.4242468866,4,portuguese,Southern European
225,NmX56-YUbVvmNW0LPCYaYQ,Aquarela Restaurant,1367 Wilson Avenue,43.722994,-79.4980982,3.5,carribean,African
226,agWZA6ajLvu6MfFySNBzZw,The Captain's Boil,226 Queen Street W_ Unit 224,43.6503532,-79.3899268,3.5,cajun/creole,Western European
227,GEvolb_U74NXgfgdxrVtyQ,Nichiban Sushi 4 U,3517 Kennedy Road_ Unit 3,43.8229701,-79.3063733,4,sushi,East Asian
228,AnE8XM7U07BI09lJH1WLbw,Freshii,1560 Yonge St,43.6894573,-79.3950643,2.5,sandwiches,Northern European
229,L6PDAxh5HgBlPeF4Mxj78g,Don Juan's,277 Front Street W,43.6443497443,-79.386719875,4,hotdogs,American
230,2pKpeyPnek0I-_yEvlFK3A,MamaLand Resto-Lounge,685 Lansdowne Avenue,43.6588937,-79.4427568,3,carribean,African
231,DaTQLers4x_DbGPi7r_xVw,Rebozos College,424 College Street,43.656674992,-79.4071152266,3.5,mexican,Latin American
232,U5zf1i_WzinhXLZH7X-N-Q,J-Time Sushi,394 Bloor Street West,43.6660632,-79.4071762,3.5,sushi,East Asian
233,1I3PnP5FSkur8AXp6izLOw,The Dime,538 Queen Street W,43.6476526616,-79.4026391208,3.5,burgers,American
234,T5Y4Mo5fgmU77KrbdRffcw,One Love Vegetarian,854 Bathurst Street,43.6667741,-79.4120657,4.5,carribean,African
235,atNuup_649IY1B1L1vTkow,Ciccio Sanwiccio,762 Yonge St,43.6695184,-79.3866159,2,sandwiches,Northern European
236,2QFBEf71QHshBxMU_6LCsQ,Bikkuri Japanese Restaurant,1835 Yonge Street_ Suite 101,43.6967221,-79.395836,3,japanese,East Asian
237,JMq8vAXtgqPKkjIGJfg2Pg,Sushi Queen Izakaya,655 Bay Street,43.6576956,-79.384199,3,sushi,East Asian
238,kqIjHVFbhg-mqRGRhpRKpg,Prego Restaurant,753 The Queensway,43.626083,-79.5036015,4,italian,Southern European
239,kLw_FmSiEqYH-MtFhDIUFQ,Big Daddy's Bourbon Street Bistro & Oyster Bar,212 King Street W,43.647499,-79.3864714,3.5,cajun/creole,Western European
240,4SQvBWjDh_eUx_10M-eigA,Lan Restaurant,755 Queen Street E,43.6591967,-79.3479061,3.5,vietnamese,Southeast Asian
241,RETMZPZ-oF-ncO-0IRPfOA,Thai Take-out & Catering,2480 Eglinton Ave E,43.7349058,-79.2598271,3,indian,South Asian
242,NNR0daIlKHTp2yU3F4H36A,The Roastery Coffee House,401 Richmond Street W,43.6476322,-79.3950698,3.5,salads,Southern European
243,tF9x2PFZM_DOIpIxk0DDzQ,McDonald's,160 Spadina Ave,43.648782,-79.396742,2.5,burgers,American
244,83xQtNti1lQgqWTERfeqcw,Bua Thai Restaurant,150 Avenue Rd,43.6748504,-79.3968031,4,thai,Southeast Asian
245,xbmxzInleHymSlaERwhMng,Freshii,53 Bloor Street E,43.670347,-79.3853019,2.5,sandwiches,Northern European
246,qLEShJZktG253dxYTG5jYA,Bombay Express,471 Church Street,43.6644546,-79.3802563,3,indian,South Asian
247,y-Iw6dZflNix4BdwIyTNGA,Indie Ale House,2876 Dundas Street W,43.6654413783,-79.4652382136,4,pizza,American
248,Bal9D1fzSgPvQPMzrvJF8g,California Thai,200 Wellington Street W,43.6459076,-79.3878224,3.5,thai,Southeast Asian
249,CsQbzxZ275CXkndSo8gryQ,Pariwar Restaurant,1732 Lawrence Avenue E,43.7426604262,-79.3086605519,3,indian,South Asian
250,a_ZMv-iiPD7m8ffY9M2d7g,Quesada Burritos & Tacos,2235 Yonge Street,43.7061663,-79.398018,2.5,mexican,Latin American
251,PMCKMRXChVsStf_uyRbKBQ,Gyro Bar! Souvlaki Kitchen,1050 Coxwell Avenue,43.6970097,-79.3295905,3.5,greek,Southern European
252,kK584Af-ny3m--9SIsrFhQ,The Whippoorwill Restaurant & Tavern,1285 Bloor Street W,43.6583044,-79.4425187,4,canadian,Canadian
253,g66wj1KADcE9AetNMo1hSA,Potala kitchen,1422 Queen Street W,43.6410858,-79.4350336,4,himalayan/nepalese,South Asian
254,V_RCxGOkOI2sV9V25zTwrg,The Comrade,758 Queen Street E,43.659392263,-79.3479483273,4,canadian,Canadian
255,kN3k8ssOs1Bo7xTtQkpBDg,Fresco's Fish & Chips,816 St Clair Avenue W,43.6808548,-79.4305171,4,sandwiches,Northern European
256,xOUd1W3MmyHXnbr3DxDwqg,Ho Lee Chow,2204 Danforth Avenue,43.6865959,-79.3098439,1,chinese,East Asian
257,7rpa12_EX3A-hyGtrv8o3A,Cocina Lucero,523 Yonge Street,43.6637735,-79.3839436,3,mexican,Latin American
258,2xhizW22zt1gwBjc9wwEKQ,The Family Thai,785 Danforth Avenue,43.6794371,-79.3416635,3.5,thai,Southeast Asian
259,IE1lzZvdD9UnGeB1kXjuOQ,Aroma Espresso Bar,500 Bloor Street W,43.6655226,-79.4102724,3.5,sandwiches,Northern European
260,Mr-r_r8qCnr9LMnazT0rhA,Teatro Restaurant,505 College Street,43.6559783,-79.4100924,2.5,italian,Southern European
261,8ZpXbFWIY4uEnmOJMr6gyQ,Pour Boy,583 College Street,43.6550725,-79.4132313,4,american,American
262,h5TdULM3nc6IoqY4yOdZqg,Sushi 101,513 Bloor St W,43.6654118,-79.4087897,2.5,japanese,East Asian
263,GHUHWAaVjKDn74r50EKKMA,Calii Love,367 King Street W,43.6458593,-79.3927528,3,hawaiian,Multicultural
264,1idRJwqXxxmgSyQRKag4KQ,Ici Bistro,538 Manning Avenue,43.6606321,-79.4147235,4.5,french,Western European
265,zV38gkkEeJ4cVRlSWWQTfQ,Il Gelatiere,647 Mount Pleasant Road,43.7053513,-79.388712,4,italian,Southern European
266,vnIdWzIB2W4j9cDcd6tHAQ,La Rev,2848 Dundas Street W,43.6655613,-79.4642444,3.5,mexican,Latin American
267,aKESUG6MntqZNvC0DiFcJg,Penelope Restaurant,225 King Street W,43.6466821,-79.3881743,3,greek,Southern European
268,7qvkkXgOyDYsDnEJvJTCzg,Flame Shack,506 Queen Street E,43.656905,-79.358665,3.5,burgers,American
269,1j8Ic7I5E9ztBe1lMZ_06w,Subway,731 Bloor Street W,43.6634065,-79.4185575,2.5,sandwiches,Northern European
270,q3ilBINLR7KoBBlxSqCvlA,Pine House Cafe,21-5661 Steeles Avenue E,43.8318675265,-79.2659023002,3.5,chinese,East Asian
271,qDguZjZSYPOzq-je_EqO3w,Bamburger,2112 Yonge Street,43.702855,-79.3977064,3.5,burgers,American
272,XEKx5litKe1KkfJpqtmJUw,Dong Kee,3838 Midland Avenue,43.8194673,-79.2948607,3.5,chinese,East Asian
273,ElFjivhz41XfFiOogtTCvg,Vino Rosso Bar & Restaurant,995 Bay Street,43.665223,-79.3874872,2,italian,Southern European
274,U8ou87Xc3MWiDnmGB3U6mg,Le Kensington Bistro,256 Augusta Avenue,43.6562111,-79.4027149,4,french,Western European
275,0SNvAyFV7rFEjMCauknf-g,La Cocina De Dona Luz,807 Saint Clair Avenue W,43.6804967,-79.430542,3.5,peruvian,Latin American
276,VutzmcU-hZt_WfgMkEuiFA,Pasta Tutti Giorni,98 Island Road_ Unit C,43.7983067,-79.1393529,3.5,italian,Southern European
277,YAnuTr6PyHRKCVbpg3U9Lw,Maison Close 1888,21 Kensington Avenue,43.6531924,-79.3999578,4.5,canadian,Canadian
278,EzGGUtQtbE8z57pqxE0I8w,Bamboo Buddha Chinese Resturant,752 King Street W,43.6435286,-79.4051044,3.5,chinese,East Asian
279,7c8wPuPOKK2ggE7jz5uC-A,Fare Bistro,1097 Queen St E,43.6619705,-79.3359731,4,french,Western European
280,Lzj-_QdzL2bLeHd_bC88Fg,Quanto Basta,1112 Yonge Street,43.6787505,-79.3905545,3.5,italian,Southern European
281,P6paPwtYXcwn4vbSXViIaQ,Darbar Persian Grill,2015 Avenue Road,43.7355,-79.419651,4,persian/iranian,Middle Eastern
282,OZN43HzSTJVKBAKXmXxAjw,Bunny's,912 Queen Street E,43.6607361,-79.3423123,4,canadian,Canadian
283,JK_EaeYRYp3oCsc3gewuRQ,Thai Express,120 Bremner Boulevard,43.6430006637,-79.3833538451,3,thai,Southeast Asian
284,q9em9QCFRjLEk-S04rqj2A,Thai Express,3300 Bloor St W,43.6454256,-79.5224399,2,thai,Southeast Asian
285,Fejwokv8mYx1B4R0Z8KiBA,Pkaros,645 Yonge Street,43.6678803,-79.3856303,4,burgers,American
286,fCpPsX76xgs4BKLe_uxAMQ,Mucho Burrito,263 Queen Street W,43.6501105,-79.3891442,3,mexican,Latin American
287,d46IlWJKA0RSoWwKlH9glA,MR GREEK,221 Carlingview Drive,43.6847146,-79.594476,2,greek,Southern European
288,Kn57RIWAdnVfJHI1loLXOQ,Super Hakka Restaurant,1801 Lawrence Avenue E,43.742583,-79.304811,3.5,chinese,East Asian
289,mUUTJY9_BqmAYxypHiqWrw,Francesca Italian Bakery & Delicatessen,2 Invergordon Avenue,43.7878188,-79.2566999,4,italian,Southern European
290,ytYP2UXkRow2L3emGp469w,Afghan Kebob Cuisine,2298A Islington Avenue,43.7160486,-79.5556858,3.5,afghan,Multicultural
291,GamiKM6IQmrohug1QpiINA,The World Carribean Bistro,786 Broadview Avenue,43.6769993,-79.3587876,3.5,carribean,African
292,KvWtJUUT_nEGfWJ2u7wbdw,The Fry,6012 Yonge Street,43.7889140388,-79.4183313847,3.5,korean,East Asian
293,AED5R0yXVzJvWAGEqWBG4A,NEO COFFEE BAR,161 Frederick St_ Unit 100,43.6507066,-79.3687971,4,japanese,East Asian
294,esnvHQxunLTAckQpntqbCg,Stelvio,354 Queen Street W,43.649212,-79.395485,4,italian,Southern European
295,P39yhVb1mR3akLeuSmH97g,Cheers Chicken & Beers,19C Finch Avenue W,43.7792257255,-79.4173240849,3.5,korean,East Asian
296,ZuZxDPtDsh-nmbLebRC8iA,Nam Sandwich,874 Queen Street W,43.6451986,-79.4143964,4,sandwiches,Northern European
297,nemcwBBzPuTbP9oKF9t_Jw,Tilde,699 Danforth Avenue,43.6790622976,-79.3438350409,3,mexican,Latin American
298,WVAvGK24DQ9FdsEHBqIygQ,Mi Taco Taqueria,247 Queen Street W,43.6502718,-79.3887054,4,mexican,Latin American
299,Tts6148XS4zIMpWPq3dmAA,Barton Snacks,1120 Queen Street W,43.643452,-79.4234321,3.5,hotdogs,American
300,uxM2hXYkS9kr-DiQN2lB5g,Omaw,88 Ossington Avenue,43.6461256,-79.4196726,3.5,southern,American
301,EWmwbOm_4UhOtvLaBzHpPA,Fresh Off The Boat,404 Queen Street W,43.6486781,-79.3972377,3.5,sandwiches,Northern European
302,ykbE9NjULx_byOnNtXJilw,Que Supper Club,364 Queen Street E,43.6557576,-79.3638181,3.5,barbeque,American
303,JqCPbQ02W0Jbxrp6X94KQA,Cantanhede O Bairradino,662 Lansdowne Avenue,43.6625541,-79.4449107,4,portuguese,Southern European
304,tzKvRnRIemqa727XYV45UA,The Bean Sprout,1448 Lawrence Avenue E,43.743243,-79.3129176,4,chinese,East Asian
305,ndgnPEeRSztiigwNW2IuBg,The Belsize Public House,535 Mt. Pleasant Road.,43.7026552,-79.3877002,4,american,American
306,J8cLxK-DIl8ZweElFLec7Q,Thai Princess,387 King Street W,43.6456489,-79.3934495,3.5,thai,Southeast Asian
307,B_mwPtFC_uVeZDnPyN0epg,Melt Grilled Cheese,3341 Lakeshore Boulevard W,43.5962879,-79.525566,3,sandwiches,Northern European
308,TWLis660xBybfjuixYkPbg,Noodle Menu,1265 Queen Street W,43.6416916,-79.431251,3.5,vietnamese,Southeast Asian
309,I3MpZ5YFmHe4gHgA0CRzpQ,Nari Sushi,257 King Street E,43.6511578,-79.3676458,3.5,sushi,East Asian
310,Zwrpe8S2VTpfsZ1_4HCMDA,Mr. Greek Express,18 Lebovic Ave,43.7232876,-79.290478,2.5,greek,Southern European
311,vrAZ6qenlYwHfgzSSlmkiQ,Regency Restaurant,1423 Gerrard Street E,43.6720151,-79.3224204,4,indian,South Asian
312,zLi7QpWq01lxPUxnscRp8g,Pita Village,109 McCaul St,43.6537184,-79.3909035,2,sandwiches,Northern European
313,A49jCMzZXswmSAZqZUAi8Q,E-Tea - Bubble Tea and Singaporean Cuisine,414 Dundas Street W,43.6537169,-79.3950274,3,singaporean,East Asian
314,ExoqgA3aAz6bYidI0DSQvw,California Sandwiches,861 York Mills Road,43.7542720222,-79.351681564,4,sandwiches,Northern European
315,c56XijYc2vT3YWhtXkPJaw,Northern Chinese Cuisine,713 College Street,43.6550212,-79.4182987,4,chinese,East Asian
316,3ffpa2xSDjK4XhF2E-jp1A,Magic Oven,1450 Danforth Avenue,43.6829336,-79.3263672,3.5,pizza,American
317,YSUcHqlKMPHHJ_cTrqtNrA,Vagabondo Italian Ristorante+Lounge,32 Wellington Street E,43.648404,-79.375469,3,italian,Southern European
318,6sOBPz69VLgIvNAY7dowOg,Mei Chuen Fast Food Restaurant,3301 Mcnicoll Ave_ Unit 1,43.8201412,-79.2619579,3.5,chinese,East Asian
319,XH2TZmZt6gzHHpjqk8C6pg,Zucca Trattoria,2150 Yonge Street,43.7037349,-79.3979305,3.5,italian,Southern European
320,zeOJYl5UW4D5u3Vcj6QAoA,Azarias,3058 Bloor Street W,43.6469981,-79.5131954,4.5,canadian,Canadian
321,TokCEFNZeS1VQe1iir2ubg,Tim Hortons,4915 Bathurst Street,43.7729021189,-79.4423142786,2,sandwiches,Northern European
322,EJHDhuxYQNWhSENrWX6OHg,Put A Cone On It,633 Bloor Street W,43.6643322,-79.4144186,4.5,sandwiches,Northern European
323,K5u1029QHG4JkURRx_z7JA,McDonald's,552 Yonge Street,43.6644556,-79.3845895,3,burgers,American
324,GkrElnysLT5iWSEbqcVkzg,Golden Joy Hakka Restaurant,900 Albion Road_ Unit 18,43.7348114,-79.5590305,4,chinese,East Asian
325,fJETfN5aByPwhhwEAtmbJQ,Mel's Montreal Delicatessen,440 Bloor Street W,43.6658099,-79.408497,3.5,sandwiches,Northern European
326,FI6XxleZ6Z1xJ9BS4zLKgQ,Chan Yang,5 Northtown Way_ Unit 7,43.7743736325,-79.4140428131,3.5,taiwanese,East Asian
327,KFaMIyNmxHeAot5huOiuyg,McDonald's,470 Yonge Street,43.6621909,-79.3837847,2,burgers,American
328,n_J4ryIX_f2CVdse8Wd-Ig,Ho Jan Chinese Restaurant,45 Carlton St,43.6614153,-79.3806632,3,chinese,East Asian
329,McVmSLVRJBDWIuQO7D6GJg,Soos,94 Ossington Avenue,43.6462416,-79.4197717,4,malaysian,Southeast Asian
330,2Wzet4CPV0glZYXqFGyqyg,Courtyard Restaurant,121 Yorkville Avenue,43.6705763,-79.393082,2,hungarian,Central European
331,cicPsia8Wj-DNRkmLbD_xg,The Keg Steakhouse + Bar - Yonge + Eglinton,2201 Yonge St,43.7058734068,-79.3978145943,3.5,steakhouse,American
332,ux0mn7v7fd6cTO-v4b3wig,Kokyo Japanese Restaurant,572 Rogers Road,43.6823316,-79.4711208,4,japanese,East Asian
333,O1HRTVujjxYZNFUVmEUvEw,Toronto Style Bar,1546 Bloor Street W,43.65633,-79.4531002,2.5,american,American
334,wVnvWvuS7ZZMQwW8uQEcmg,Oishii Japanese Restaurant & Bar,556 Church St,43.6658678,-79.3811324,2,japanese,East Asian
335,7VShkfLFDaTngFMd8fl5Rw,Bigman’s Pizza,1528 Bayview Avenue,43.704378,-79.375025,2,pizza,American
336,5vwA-2fU7A_QY7MqLeHQCg,Camerini Ristorante,709 Mount Pleasant Road,43.7066079,-79.3894361,4.5,italian,Southern European
337,aY0Y058p2_iWxMAZron2mg,Paese,3827 Bathurst Street,43.7397281,-79.4342103,4,italian,Southern European
338,8ZaaUqIp_h__jUIoPfuVKA,Vaticano,25 Bellair Street,43.6707517,-79.390998,3.5,italian,Southern European
339,Gg9AdtMe6JOWgVK0TNrf1Q,The Sprout,15 St.Clair Avenue W,43.6875648,-79.3955615,4,vietnamese,Southeast Asian
340,GtE6tgTAYGtnxJohmpukRw,Southside Louie's,583 College Street,43.6552566,-79.4132866,3,american,American
341,FoRVCri_clZDdhrYVlPmQw,Egglicious,430 Kipling Avenue,43.6063987,-79.5207601,4,canadian,Canadian
342,9msmjD6wXgsGnYiZj31lug,Churrasqueira Portugal BBQ & Grill,1912 Eglinton Avenue West,43.6953698,-79.4523379,4,portuguese,Southern European
343,v1uIObWcfiQiyr4EmtAixw,El Fogón,543 St Clair Avenue W,43.6825369,-79.420482,3.5,peruvian,Latin American
344,zvtkeghW0Px5HY9QkJ4INw,Curry Kitchen,117 Dundas Street East,43.6564779,-79.3765837,3.5,indian,South Asian
345,Cx5oz2bHHa62W248CR1B4w,Alcoa Bakery,1147 Davenport Road,43.6744014,-79.4315547,4,portuguese,Southern European
346,Nxg73OigmRQQq0d1pKtkUQ,Xe Lua Restaurant,254 Spadina Avenue_ 2nd Floor,43.6517002,-79.3979873,3,vietnamese,Southeast Asian
347,1DaqBYCDuBwooGNPRv4--g,Czehoski,678 Queen Street W,43.6465832,-79.4074016,3,polish,Central European
348,7PK9PIdWdPtAp0gB31hO7Q,Sunset Grill,1 Richmond St W,43.6513704,-79.379245,3.5,canadian,Canadian
349,Q-nziRgGBgPnJA0k90mwpw,Starbucks,394 Bay Street,43.6517599,-79.3816391,4,new american,American
350,ogSBjY4agU0KDQJ2LOAc0g,Hero Certified Burgers - Bayview & York Mills,2540 Bayview Ave_ Unit 8B,43.747513,-79.384683,2.5,burgers,American
351,4AODBYlS9wIBL1aPFJo1Tg,Real Mo-Mo's,51 Colborne Street,43.6490687312,-79.3749376014,4,canadian,Canadian
352,a1r6nEAb6Va3x5IgIz5kGQ,Jerk Spot,149 Baldwin Street,43.6549112,-79.3994556,3,carribean,African
353,dF47LvoipaCACkZ4LAnBMQ,El Rinconcito Mexicano,638 Church Street,43.6697933283,-79.3829004333,3,mexican,Latin American
354,AM0NHSxMeX92OKBt0ywmSA,La Carnita,780 Queen Street E,43.6596351,-79.3474138,3.5,mexican,Latin American
355,D9r7Ct5KMMsUppCyvvguwA,Happy Bowl,Richtree Natural Market Restaurants_ 14 Queen Street W,43.6572682,-79.3814178,2,canadian,Canadian
356,cS4yqCzFV0719CU_1b0IqQ,Hoja LuWei,615 Bloor Street W,43.6644506,-79.4137859,3.5,taiwanese,East Asian
357,Mwl79jLlxPQabA3yiSPz0A,Canton Rice Noodle,2301 Brimley Road_ Unit 134,43.7978023137,-79.2708323523,4,chinese,East Asian
358,NPiVx-WKsuOEl1v0eWdxYg,Sichuan Landscape Chinese Restaurant,416 Spadina Avenue,43.6562218,-79.3998082,2.5,chinese,East Asian
359,Y8WQEE41enzefOEq_Gmhww,Cho Dang Soon Tofu,5130 Dundas Street W,43.6442389,-79.5334172,3.5,korean,East Asian
360,2VtTzskzFcwVnXgGYsY1lQ,The Captain's Boil,4505 Sheppard Avenue E,43.787913,-79.264716,3.5,cajun/creole,Western European
361,TgTxNRu2N4GymtmurKi77g,EJ Sushi,385 Front Street W,43.6428062,-79.3930109,3.5,sushi,East Asian
362,2lHLb0Hi_UtGa1Bne-jZuA,H Bar,859 Queen Street W,43.6457619092,-79.4104793334,3.5,canadian,Canadian
363,ZztPR3OnI8hlKerG5e72hQ,Bar Neon,1226 Bloor Street W,43.6591711775,-79.4392633438,4,tapas,Southern European
364,yKFx0bW9_buGt9NASTpUaw,Smoke's Poutinerie,203 Dundas Street E,43.6571244,-79.3735923,3.5,poutine,Canadian
365,3glVZZh_vyZH1VvPU0307A,Enoteca Sociale,1288 Dundas St W,43.6495822,-79.4256294,4,italian,Southern European
366,oPDpXdT4CyldMoEbRiHtZQ,Mattino,596 College St,43.6552948,-79.4140802,1.5,italian,Southern European
367,A4t1UT6j1lSQN6OM0Oy2GA,Bang Bang Burrito,366 Bloor St W,43.6663572,-79.4059096,4,mexican,Latin American
368,D-8yidw7FLKKQpciKJSd2g,The Burgernator,269 Augusta Avenue,43.6556342,-79.4024449,4,burgers,American
369,k06XtKFh2TLkWNLhBzmshQ,The Daughter,1588 Dupont Street,43.665269,-79.4540472,3,canadian,Canadian
370,o10HWCwBFbptlbIxgL4T5Q,The Grill Brothers,30 Eglinton Avenue W,43.7065925,-79.3997794,3,burgers,American
371,YunsfM_RlOAGClNM_lZFvQ,McDonald's,1787 Bayview Avenue,43.7109585,-79.3767039,2.5,burgers,American
372,Tys0pRjszlcAbNPbKqJ95w,A&W,35 Eglinton Avenue E,43.706744,-79.3971411,2.5,burgers,American
373,sAng75j1Sz4up4Z4ckYmyA,Greek & Co,366 Bloor Street W,43.6663524,-79.4058824,3,greek,Southern European
374,E3JyyBNcZD9re_yiVOgaVg,Green Basil Restaurant,2120 Queen Street E,43.67129,-79.294772,3.5,thai,Southeast Asian
375,7Q3POwUj0u168Qp4c8gCog,Sorrento Ristorante,3265 Yonge Street,43.7292932,-79.4033194,2.5,italian,Southern European
376,_HePiPCk9tmgezshWwZGOw,Regal Garden,643 Bloor Street W,43.6642026554,-79.4151029637,4,chinese,East Asian
377,-DOE4Qs8IMfgkvshYKfC7w,Pho Asia 39,1391 Weston Road,43.6918236,-79.5013322,3,vietnamese,Southeast Asian
378,vHHHbPjhXtLApOmBoGWLww,Seaspray Restaurant,629 Kingston Road,43.6787087,-79.2982057,2.5,chinese,East Asian
379,Ow9LZC3YZs9O6OSDa1-HGw,Beacher Cafe,2162 Queen Street E,43.6720052,-79.2913423,3.5,canadian,Canadian
380,dLIk8-OHVzClGqtb1M91KA,Tim Hortons,1000 Gerrard St E,43.669144,-79.3391627,2,sandwiches,Northern European
381,M4j4R5VPwP0UVlSba24C3g,Five Guys,85 Laird Drive,43.7056155,-79.361144,3,burgers,American
382,Mn8PTuxCUu1A2_RlwXv3kw,Vintage Garden,1038 McNicoll Avenue,43.8064743,-79.3351692,4,chinese,East Asian
383,SNVl3ymqmOSy-x1-eZC-Gg,Subway,78 Dundas Street E,43.6564976,-79.3782647,3,sandwiches,Northern European
384,y4zoAUW47T6dcopfeK31fw,Blue Nile Restaurant,1260 Danforth Avenue,43.6820083,-79.3309105,4.5,ethiopian,African
385,OedNdVrDavAlUBV7d9oKXw,Porzia Restaurant,1314 Queen Street W,43.6418337,-79.4311034,4,canadian,Canadian
386,SEvUFPydtLJ5eExD32Agxg,Chococrêpe,620 Queen Street W,43.647411,-79.405493,4,french,Western European
387,Sa4-TzGkHKzCA99ZdkPJYA,Mirage Noodle Restaurant,4186 Finch Avenue E,43.8033881,-79.2878535,2,chinese,East Asian
388,2mKFNjIEktW2Nl1yV2cj7g,McDonald's,11 St Clair Avenue E,43.6880988,-79.3931787,3,burgers,American
389,rP4gUHitQO4Qtnt0zq0y-g,Sunset Grill,45 Wicksteed Ave,43.7103001521,-79.363142252,3.5,canadian,Canadian
390,nvmLOeXtmZtr2Zp231gJqg,YOi Japanese Eatery,1800 Sheppard Avenue E,43.7779901,-79.3440914,4,japanese,East Asian
391,IfUkm42SB9D0m_ZbkQ711A,The Fish Store & Sandwiches,657 College Street,43.6549209,-79.4163139,4,sandwiches,Northern European
392,zNL9Ajmn3gHUk__kpX7aIg,Cinco Mexican Restaurant,131 Roncesvalles Ave,43.643092,-79.447663,4.5,mexican,Latin American
393,u4wlIcfIHA8fhnszID8NqQ,241 Pizza,451 Parliament Street,43.6635483,-79.3675041,3,pizza,American
394,q7hgincxO4YwDPVcIzWPbg,Pho My Duyen,1208 Bloor Street W,43.6592720818,-79.4387483597,3.5,vietnamese,Southeast Asian
395,VGqzcHo_IJgRT0UV4oI52g,The P&L Burger,507 Queen Street W,43.6481193,-79.3986991,3.5,burgers,American
396,D3fDbyPWUrgTarW6fIv-Kg,Ninki Sushi,12 Adelaide Street W,43.6505622,-79.3792181,3,sushi,East Asian
397,z-5YXiSmZchuoANnqfp1vg,Pi-Tom's Thai Cuisine,235 Jarvis Street,43.6568116,-79.3742278,3.5,thai,Southeast Asian
398,apHPFnDUIaZM7uZoB9DXfw,Archeo,31 Trinity Street,43.6506799169,-79.3595257288,3.5,italian,Southern European
399,Er8lBoKdYofhheu0Di93fw,MainSha Restaurant,1669 Saint Clair Avenue W,43.6744509,-79.4580478,4,canadian,Canadian
400,kL7u1A1lIsefy_NGYZN9vg,La Prep,2 Queen St E,43.6527954,-79.3788429,4,sandwiches,Northern European
401,diosugZoYfZtzNhClRC6LA,Pizzaiolo,834 Yonge St,43.6712831,-79.3878444,2.5,pizza,American
402,x1IPOlH_O5D3qZdZo6YyEA,Florentia,579 Mount Pleasant Road,43.7035596,-79.3879764,3.5,italian,Southern European
403,ON1okhu0z6jtCSOzt1Y01w,Mersin Mediterranean Cuisine,1618 Bloor Street W,43.6558598,-79.4556316,3.5,turkish,Middle Eastern
404,oICXzFAaUMrYGzjRWmkw4Q,Anh Dao,383 Spadina Avenue,43.656345,-79.3989615,3.5,vietnamese,Southeast Asian
405,vnCU8LWS1xMfm-94Ojwzmw,Hakka Masala Restaurant,2680 Lawrence Avenue E,43.7524465,-79.2622936,3.5,chinese,East Asian
406,VQAmVxvPROLhSoeDc8C5gQ,Sunrise Caribbean Restaurant,1949 Finch Avenue W_ Unit B,43.756264,-79.518164,3,carribean,African
407,4RX8xAIil_Wljid422gvDw,Hero Certified Burgers - Bayview & Leaside,1627/1629 Bayview Ave.,43.7067018,-79.3755097,2,burgers,American
408,mRDs0z_ys0h1NFh59vQqSg,KFC,737-260 Yonge Street,43.6544382,-79.3808739,3,american,American
409,LHt5Czj7B4rspfOuuxKjwQ,Aji Sai Japanese Restaurant,783 Danforth Ave,43.679352,-79.3416591,3.5,japanese,East Asian
410,3vs6rARRBm-O99y4bryilw,Ichiriki Japanese Restaurant,120 Bloor Street E,43.6709600776,-79.3838414455,3.5,japanese,East Asian
411,TtBNeqXSRh37VD-pW_VbAw,South China Noodles Delight,3380 Midland Avenue,43.8091192,-79.2908297,4,chinese,East Asian
412,VnibgMdZkBqnMDnY4BWPUg,Naan and Kabob,1780 Markham Road,43.7952059,-79.2397806,4,afghan,Multicultural
413,Iadni8K9IgCJe2yB3fpgTw,Banjara Indian Cuisine,164 Eglinton Avenue E,43.7079784,-79.3934083,4,indian,South Asian
414,28TtvOd1npZQ-tH7Hm432w,Casey's Bar and Grill,123 Front Street W,43.6449099,-79.3833287,2.5,american,American
415,SxvKjtbq5qRlFoXrU8Bo9Q,Descendant Detroit Style Pizza,1168 Queen Street E,43.6627782075,-79.3321695327,4.5,pizza,American
416,epb_jKqFvo34MoozEM3Qsg,Roti Cuisine of India,308 Dupont Street,43.6747728,-79.4083981,4,indian,South Asian
417,GlVFfWKY7p0CKLC-bfTalw,Alexandria Falafel,1233 Queen St W,43.641684,-79.430146,3.5,falafel,Middle Eastern
418,hdnrqrYJE1RkoUH4MFq3Ag,Casey's Bar & Grill,200 Dundas Street E,43.6573427,-79.3737463,3.5,canadian,Canadian
419,4SWvg1C5AOryih9WZFXpQg,Lick's Homeburgers & Ice Cream,654 Danforth Avenue,43.6791332,-79.3448156,3,burgers,American
420,JTIbsAs3qUq-0bNIh404ng,City Fried Chicken,2665 Lawrence Avenue E,43.75293,-79.262913,4.5,cheesesteak,American
421,EpqlqXSjtoKhc-dNft0_ug,Beryl's Pepper Pot,1610 Queen Street E,43.6663973,-79.3168252,4,carribean,African
422,Mksyt1TZQ-7vzCZjeuzfAg,CASA manila Restaurant,879 York Mills Road_ Unit 1,43.754956,-79.3488879,3,chinese,East Asian
423,tMrkIjj4fSN91d25Ru-SVQ,Living Well,2267 Lslington Avenue_ Unit 4B,43.7166077,-79.5545117,3.5,carribean,African
424,jIg5HBaYi-xPzYiZabVYsQ,The Roxton,379 Harbord Street,43.6588063,-79.4226564,3.5,canadian,Canadian
425,VF6al3kAVLMtXNnscPJahA,Bellwoods Brewery,20 Hafis Road,43.7065588,-79.4692901,4.5,canadian,Canadian
426,EEIz44ewHhOKmfTloAK13g,Alo Restaurant,163 Spadina Avenue_ 3rd Floor,43.6485391,-79.3959372,4.5,french,Western European
427,tBDkO-vfXrXMnLJu2sF0Hw,Sichuan Ren,5195 Yonge Street,43.7690881779,-79.413045086,2,chinese,East Asian
428,8C56VCsV9s1AZdO0j-WOYA,Outhouse Panini Espresso Bar,393 Jane Street,43.6582394,-79.4880565,4,sandwiches,Northern European
429,xu2I9EBWXV7SGHDbXA38iw,Hina Sushi,769 the Queensway,43.62582,-79.504395,4,japanese,East Asian
430,uN2oZDJGO078ExbbV_DGmA,BarBurrito - Sheppard,4918 Yonge St,43.7642671,-79.4120327,2.5,mexican,Latin American
431,LBHYAEi8GvbSj6GQ54bA4w,Pizza Depot,2013 Lawrence Avenue W,43.701107,-79.510939,2.5,pizza,American
432,cepfJZIv0iLj1fDs8LdYZg,Queen Margherita Pizza,1402 Queen Street E_ Unit 8,43.664969,-79.324168,3.5,pizza,American
433,0Yh6U06nGLjAMwCw6l9-DA,Yang's BBQ Restaurant,4186 Finch Avenue E,43.8042008789,-79.2884373665,3,barbeque,American
434,JtrBa5-T6QLXv3y5_ACTkg,Doo Roo Ae,659 Bloor Street  West,43.6640738,-79.4156109,4,korean,East Asian
435,tpmMELSsUxS2x1FdM6k9nQ,Wu's Garden Buffet,3560 Victoria Park Avenue,43.805803,-79.338328,2.5,chinese,East Asian
436,GY2VyNBxX5H_8kilGCAjUA,Elephant & Castle,212 King St West,43.6475556,-79.3864149,3,british,Northern European
437,SCklYa_jhihWAcfIn-_chg,Bonjour Brioche,812 Queen Street E,43.6597952,-79.3462868,3.5,french,Western European
438,twt2i-TrO6fP9fh5yM3h1g,McDonald's,395 Bamburgh Circle,43.8159603,-79.3230105,1.5,burgers,American
439,8MhT3S_iaMzjlZT0sDs2Kg,Inada Japanese Restaurant,3250 Midland Avenue_ Unit G128-130,43.8049179054,-79.2873908176,3,japanese,East Asian
440,F6DRP5pYYYgDOKeVzWFsBw,Bun Saigon Vietnamese Restaurant,252 Spadina Avenue,43.6516468,-79.3978711,3.5,vietnamese,Southeast Asian
441,tE88d-oHmNngAZNdD9EHjg,Avenue Open Kitchen,7 Camden Street,43.647128,-79.396451,4.5,sandwiches,Northern European
442,DEdB-wkPV1QzcSFMTTYl-w,South Sea Chinese Foods,162 Danforth Avenue,43.6767155,-79.3574237,3,chinese,East Asian
443,tpoSNhUvEUBNMpcuP331mg,Harry's Char Broil & Dining Lounge,160 Springhurst Avenue,43.6364773953,-79.4369736015,3.5,burgers,American
444,vOpZ0a5f-FUyU_29X7dttA,Ethiopia vegan  Restaurant,1104 Danforth Avenue,43.6812109,-79.3346294,5,ethiopian,African
445,HiqnSQ3R9QGU7Ug_mo7b0w,Hero Certified Burgers,21 Saint Clair Avenue W,43.6877312,-79.3954749,2.5,burgers,American
446,6NdKvr-FCkb22oG-KOFnbg,The Friendly Thai,810 Bloor Street W,43.6627599,-79.4226451,2,thai,Southeast Asian
447,sQ2dJZ-oHWe2rs0QFLOUJQ,Souk Tabule,494 Front Street E,43.653625746,-79.354342011,4.5,salads,Southern European
448,KXy_TQk1iR14B5xMPQoFeg,Pumpernickel's,655 Bay Street_ Suite 101,43.6578757,-79.3843752,2,sandwiches,Northern European
449,OLG7Gou8kmTLxogtJyP6ZQ,Z-Teca,2014 Queen Street E,43.6703273526,-79.2991900072,1.5,tex-mex,Latin American
450,fxRcHzovnRyWh_WMdQoNOQ,Taj Restaurant,1110 Finch Avenue West,43.7687078154,-79.474382177,4.5,russian,Multicultural
451,XT_ylW8v79TN1RWzHV0EjQ,Verdant Garden Chinese Restaurant,668 Silver Star Boulevard,43.8230942064,-79.3010709062,2.5,chinese,East Asian
452,CanfdSFEs_o_h9SBvxyXlg,Duck,444 Yonge St,43.6607009,-79.3835539,3.5,chinese,East Asian
453,2KooqK40Nd80sgIPE2ScyA,Sambuca Grill,21 Baldwin Street,43.6559258,-79.3929262,3.5,italian,Southern European
454,OyGVzgBL6W7SJOE046pecA,Greece Restaurant,643 Mount Pleasant Rd,43.70494,-79.3886077,3.5,greek,Southern European
455,saijdv-vXJrvsCfvr7SZOw,Katsuya,66 Gerrard Street E_ Unit 100,43.6600471,-79.3788023,4.5,japanese,East Asian
456,P9IA7UuzjzmdBMsdDDhtsg,Augusta's Samitorium,602 Dundas Street W,43.6523637,-79.4012818,4,sandwiches,Northern European
457,pzeb5vd0yC2yUKaRDyBrQg,What A Bagel - Spadina,130 Spadina Avenue_ Unit 102A,43.6471114738,-79.3958801811,3,bagels,Central European
458,FuMc84iDRyPHD8tpkME0yA,Fat Bastard Burrito,808 York Mills Road,43.7541178,-79.3579634,2.5,mexican,Latin American
459,ZYTTggT0haYooWAX_T9Ufg,Pho Rang Dong,1193 Saint Clair Ave W,43.6775994,-79.444054,3.5,vietnamese,Southeast Asian
460,Vl0k94KCzxAxRf-hnPvB1A,Aroma Delight Palace,3250 Midland Avenue,43.8037393,-79.2863074,3.5,chinese,East Asian
461,QfPspHUnywGU-6PImG_y1Q,Arigato Fried Chicken,5321 Yonge Street,43.7736511,-79.4139139,3.5,korean,East Asian
462,bGoGHSWHvhftHMWWxQXYbw,Ouzeri,500 Danforth Avenue,43.6784089,-79.3489549,3.5,greek,Southern European
463,gzOjboYojl0RfUDiETdGXA,Vecchio Frak,690 College Street,43.6554188,-79.4177747,3.5,italian,Southern European
464,3q8MtOEIJ6nC7kVv_8Mfgw,Verona Restaurant,335 King Street W,43.6461617,-79.3912659,3,italian,Southern European
465,6OhahrmtLGmkUdPfaMck0A,Ding Tai Fung,175 Commander Boulevard_ Unit 1,43.796407,-79.270493,3.5,chinese,East Asian
466,hQeS3VtQD7UDzl-qvW_AfQ,Pearl Sushi,2391B Lake Shore Boulevard W,43.6150852,-79.4883621,3.5,japanese,East Asian
467,uMQV2qwiviaCA61tvEjmFQ,Retro Burger,1684 Danforth Avenue,43.6841023,-79.3213379,3,burgers,American
468,fThhK-Slsc_EPuQDQkzvhA,Hero Certified Burgers - Yonge & St. Clair,1397 Yonge Street,43.687069,-79.3934553,2,burgers,American
469,E4_lj6bfeoAuAonAt_HQ9g,Beach Shawarma,1608 Queen Street E,43.6668913222,-79.3169371784,3.5,canadian,Canadian
470,GwbKZhWqzZE4C_K1prXbAA,Soul Jerk,3125 Dufferin Street,43.71456104,-79.4548845927,3,carribean,African
471,eoGAZLu8HQXxCNJC86uPcQ,Mexico Lindo,467 Danforth Avenue,43.6777461,-79.3500912,4,mexican,Latin American
472,2jkJ7odjlDIvDqJf2dwzaA,New East Garden,2889 St Clair E_ Unit 5,43.7076409,-79.3023117,3,chinese,East Asian
473,gT-LT06uNhzO-5pP_kpqIg,Caplansky's Delicatessen,156 Cumberland Street,43.6700664,-79.3933472,3.5,sandwiches,Northern European
474,fzQeUR_AvjpwIWjsMDAbGw,Fat Bastard Burrito,1118 Queen Street W,43.6434322,-79.4233441,3,mexican,Latin American
475,ABRgXNwdOX_JyqChNr8IYw,Swatow Restaurant,309 Spadina Avenue,43.653836,-79.3981091,4,chinese,East Asian
476,-IP0Y1XLcnxb6yfMxPcLfQ,McDonald's,345 Bloor St E,43.6718021,-79.3787064,3,burgers,American
477,KpRXOEecUz5s4C9DeHcpmg,Lahore Grill & Fast Food,1274 Gerrard St E,43.6713519,-79.3280357,3.5,pakistani,South Asian
478,C-1vkiwcWIuWCNYhwDLCow,Sandra's Italian Kitchen,2899 Steeles Avenue W_ Unit 12,43.7818512,-79.4917372,4.5,italian,Southern European
479,HuWUIXfaXt9hcP5MKG-Qyg,Huibin,440 Spadina Avenue,43.6570083,-79.399969,3,chinese,East Asian
480,vh1tPEaPioD78QmoqnWXpw,Sukho Thai,52 Wellington Street E,43.6485607,-79.3745641,3.5,thai,Southeast Asian
481,Pkb75Ma72lVTiLQoqHQkqQ,Socialite Restaurant & Bar,276 Augusta Avenue,43.6568352,-79.4032301,3.5,tapas,Southern European
482,MnbFtG0a7gQplkSfk_oqjw,Wonder Season Resturant,4379 Kingston Road_ Unit 4,43.7658635,-79.1910852,3,chinese,East Asian
483,An_U8woQkFVsMqVblkImZQ,DT Bistro-Patisserie,154 Harbord Street,43.6623952,-79.4057539,3.5,french,Western European
484,wStBPd_7GfhPK2V_pTX0nQ,Vena's Restaurant,1263 Bloor St W,43.6584445,-79.4417519,4,carribean,African
485,jJcg-kE3q3FylJhewFcNQA,The Wokker,763 Queen Street E,43.659328,-79.3478004,3.5,chinese,East Asian
486,0k6B3X0sinFB7ASe1lWg1Q,Pasta Mondo,55 St Clair Avenue W_ Unit 101,43.6871583126,-79.3970098552,2,italian,Southern European
487,U-mOmCETChBXaMWku22K0w,Ajuker Chicken,6016 Yonge St,43.788963,-79.4183573,3,korean,East Asian
488,sXg2NCfiCqK_X_4R5NK_jQ,BarChef,472 Queen Street W,43.6482201,-79.4001694,4.5,american,American
489,3QRdvd5F6rnKzLLb1mIg6Q,Hero Certified Burgers - Church & Wellesley,77 Wellesley Steet E,43.6656556,-79.3806099,2.5,burgers,American
490,Gk3YpwgiQf47YKkAUZtQTw,Souvlaki Hut,2100 Queen Street E,43.671055,-79.295965,3.5,greek,Southern European
491,jgsUT8Ft2bF7h1TobSGqUw,Inter Steer Tavern,357 Roncesvalles Avenue,43.6498442,-79.450111,3,polish,Central European
492,KpgqaCEqXmxSc4ejb29KHw,Drift,1063 Bloor Street W,43.6603665,-79.4325957,4,tapas,Southern European
493,jIMuSdcZspFK6bXsf7XwsQ,Folia Grill,1031 Pape Avenue,43.6887967,-79.3483753,4,greek,Southern European
494,NYKxikYKbkacWumJ82TxzA,Queen Victoria Pub,2240 Midland Avenue,43.7754496,-79.2743833,3.5,british,Northern European
495,VRwT0pscR5vESCrAnUpNwQ,Wilbur Mexicana,552 King Street W,43.6448775,-79.3987981,4,mexican,Latin American
496,4eqHtgdXEPG6V-Jzy0MhKw,Miss Things,1279 Queen Street W,43.6414601,-79.431879,3.5,hawaiian,Multicultural
497,iVxtmA5K0YHUVqeYuZ41KQ,Sushi Tower,374 Yonge Street,43.6588052,-79.3822447,3,sushi,East Asian
498,G5gkRgTMqN0iIpyoW6oTYg,Marky's BBQ,383 Jane Street,43.6577905,-79.4878006,3.5,barbeque,American
499,m_KxjrHzcVgYgtiPlmqFYA,Zezafoun Syrian Cuisine,4 Manor Road E,43.7024463,-79.3972402,4.5,syrian,Middle Eastern
500,JG26f5Ppxvmz1EP6nh2WkQ,Cafe Bar Pasta,1588 Dundas Street W,43.6499595,-79.4347325,4,italian,Southern European
501,J_PAsINZhwL6J9aV2CZrfw,J&C Bistro - The Bistro on Jane,558 Jane Street,43.6633583,-79.4902134,4.5,american,American
502,yx09NEtQQ5RGuS1hadd5qA,Ritz Caribbean Foods,3003 Danforth Avenue,43.6907493385,-79.2890505865,3.5,carribean,African
503,Jkjq2-DybUZdF0RWY8_cZg,Hangry Burger,435 Yonge Street,43.6609178,-79.3825773,3.5,burgers,American
504,127lSDZ1lvVMrhEet6un5Q,McDonald's,3400 Yonge St,43.7326528,-79.4045824,2,burgers,American
505,fEjd4HunaI-rx9xLurXhOg,Mini Bar,116 Spadina Avenue,43.6470844,-79.3961095,4.5,sandwiches,Northern European
506,-b-waFIsc6BJdXWOJMRKEQ,Marinellas Italian Restaurant,640 College Street,43.6550764057,-79.4154641032,4.5,italian,Southern European
507,Iq4NUW8He1gUWQMV-Fj20g,Indus Tavern,965 Eglinton Avenue W,43.7000638,-79.4292892,3,indian,South Asian
508,aNGKQl-_xeUbMZGMIRGQew,Cherry Street Bar-B-Que,111 Richmond Street W,43.6502911,-79.3839517,3.5,barbeque,American
509,Fav36DcwmN3M69XR5bOLVg,Hub Coffee,983 Dovercourt Road,43.6668707,-79.431551,4,sandwiches,Northern European
510,IWGS0FIr9RsrbK_cuqCYYw,Ka Chi,612 Bloor Street W,43.6646858,-79.4137847,3.5,korean,East Asian
511,apL0x9CFcXEQMnyjUOnQAQ,Pita Choice,744 King Street W,43.6434991,-79.4047317,4,sandwiches,Northern European
512,vVnccEZW4p9HlbUEucpUYg,CiCi's Pizza,1618 Queen St W,43.6396283,-79.4420788,3.5,pizza,American
513,j7Rgozl24WrmDeqFCCKwQg,Grillies,2632 Danforth avenue,43.6885797,-79.3001897,4,mexican,Latin American
514,p1XLB4zo6sI09Pb4-IA23Q,Cora Pizza,656A Spadina Ave,43.6633445,-79.4026134,3.5,pizza,American
515,8MXjK1lhVRhU3yGCUv9qsA,Mean Bao,275 Dundas Street W_ Suite 19,43.6541583,-79.3904907,3.5,chinese,East Asian
516,BWm-6W3k2cTYWW6Fs5MNtA,The Jerk Joint,238 Queen Street W,43.650344,-79.390459,3.5,carribean,African
517,hWaptsAiWkxqCX9SFfJDkg,BIWON,471 Dundas Street W,43.6529981,-79.3967835,3,korean,East Asian
518,XhI9jFlXmT33LQzOHkJrlw,Ken Ho's Snack Service,40 St George St,43.6596184,-79.3969208,3,chinese,East Asian
519,qrtSYsCVhFVlgOgTEk4s8g,La Pupusa Loka,887 Wilson Avenue,43.7303069,-79.466719,3,salvadoran,Latin American
520,arDp3i7B_ULDsbZcYk_57A,Glory Of India Roti Cuisine,1407 Queen Street W,43.6405873,-79.4365725,4,indian,South Asian
521,7HN_DGWi4E76cP7aR-YbPw,The Roastery Coffee,8 Pardee Avenue,43.6375183012,-79.4228782898,3,salads,Southern European
522,YIez_A3WOt9J2SXN7OMa2Q,Allwyn's Bakery,81 Underhill Drive,43.7459284,-79.3246225,4,carribean,African
523,H_xtDKsVhAGTAdMguD5LtQ,Subiksha Foods,2633 Eglinton Avenue E,43.7353973,-79.2516124,4.5,indian,South Asian
524,3i8QcSgFgGQdc_2eikQd7g,Chimac Pub & Fried Chicken,500 Queen Street W,43.647938,-79.401254,3,korean,East Asian
525,F2FtgThyVbp93N-OmHtbOg,Caju,922 Queen Street W,43.6448797,-79.4158406,3.5,brazilian,Multicultural
526,bS1gW0hb-iyb4vr2anSGsw,Greek In the Village,471 Church Street,43.6644561,-79.380257,3,greek,Southern European
527,DKZN5IjHEE_BCDCRLxb7sQ,Mykonos Mediterranean Grill,881 Yonge Street,43.6743209,-79.3880618,4,greek,Southern European
528,u2OWmQOVGFBF_jVwuiIveA,Steakfrites Bistro,3185 Yonge St,43.7274988,-79.4026632,2.5,french,Western European
529,aDGp0NnKuVH3_pOCfZwqsA,Pizzaiolo,1 Toronto St,43.649044767,-79.3775595471,3,pizza,American
530,3MGBjyl6zMdIx5idpgDciQ,TenRen Tea,5095 Yonge Street_ Unit A2,43.7687386,-79.4121421,3,taiwanese,East Asian
531,vROhHLGsyLh9oC9GNXJBfQ,Freshslice Pizza,250 Dundas Street W,43.6547776,-79.389177,3,pizza,American
532,17YCQTKmq4D5sMMaY1EbqQ,Olivia's At Fifty-Three,53 Clinton St,43.6556662,-79.4138811,4,italian,Southern European
533,3hI6dSt3PiF0y6aXA0QeHw,Pho 88 Viet Thai Cuisine,250 Alton Tower Circle_ Suite C6,43.8251957,-79.2761678,3,vietnamese,Southeast Asian
534,_fynxUO7Vykq1XHGYyIoKQ,Oniwa,214 King Street W,43.6475369,-79.3868705,2,sushi,East Asian
535,sAWo3kwrx53oFKDqUoJEYQ,The One That Got Away,581 King Street W,43.6443239,-79.3998254,3.5,sandwiches,Northern European
536,8nne2Ju1jpdpYRbUdExpZw,Com Tam Dao Vien Peach Garden Pho,2721 Jane Street_ Unit 12,43.7402279926,-79.5127934217,3,vietnamese,Southeast Asian
537,RIeKxxqlpvN7xKy9OWtIPA,Rose City Kitchen,36 Toronto Street,43.6505792,-79.3765365,2.5,sandwiches,Northern European
538,sJ0MYSAIVK28cMzh-s-NPA,Amaya Express,Eaton Centre_ 220 Yonge St,43.6540667,-79.3800815,2.5,indian,South Asian
539,kSO4DD-jpf0BOLHuzvtL-w,Teriyaki Experience,444 Yonge Street,43.6607712,-79.3830379,2.5,japanese,East Asian
540,tthxzfZu5z1ZYAV7-Um2tQ,Xe Lua Vietnamese Restaurant,125 Ravel Road,43.7907360299,-79.3670115071,2.5,vietnamese,Southeast Asian
541,XMJAeXBHETtUhvldZC52CQ,Borrel,1333 Danforth Avenue,43.6820658457,-79.3290362995,3,scandinavian,Northern European
542,Cbvx1IxPniwo_Ybk4CdIBQ,Tao Tea Leaf,934 Yonge St,43.6744781,-79.3886914,4.5,chinese,East Asian
543,S8_W8gxq1I5r61iiy_Xt0w,Pastabilities,95 King Street E,43.6497601,-79.3746797,3.5,italian,Southern European
544,TNRJvG_R1njEdid-UdCjBQ,Leela Indian Food Bar,3108 Dundas Street W,43.6656864338,-79.4737639278,4,indian,South Asian
545,BGK5N70oRV_o6RK7tDnlkw,Serra Ristorante,378 Bloor St W,43.6662923,-79.4062449,3,italian,Southern European
546,GoOkCxPFM5i5lxHgFQMj1w,Asian Legend,900 Don Mills Road,43.726343335,-79.3424751046,3,chinese,East Asian
547,m3K_2-kkNUFrXh74QUfaHg,The Suya Spot Scarborough,269 Mornigside Avenue,43.7715993,-79.1869592,4.5,barbeque,American
548,qdV0dLjJ2duhNoYlhVavzw,Jelly Modern Doughnuts,376 College Street,43.657046,-79.4049065,3.5,donuts,American
549,S-RaYhvlDg8rgEOxaFeLHw,Peking Express,217 Parliament Street,43.656748,-79.3646685,3,chinese,East Asian
550,pkxhsLgD1Ai_P0I3_NofbQ,Isabella's Boutique Restaurant,2328 Queen Street E,43.6737785,-79.2827866,4.5,japanese,East Asian
551,4gtPPwx8fBWJ9FGtQqQA0Q,New Greatime Corp,3875 Don Mills Road,43.8078109,-79.3569636,2.5,chinese,East Asian
552,bB9JPvR2d-I1jxSVlqN2DQ,Yum Croissant,1917 Queen Street East,43.6689076,-79.304192,3.5,sandwiches,Northern European
553,49fcUkW5tOHlqBakrWTMzQ,North of Brooklyn Pizzeria,650 1/2 Queen Street W,43.6469452208,-79.4065953791,3.5,pizza,American
554,9ET_RUNztevq4_OLAX80Gg,Café Boulud,60 Yorkville Avenue,43.6719213,-79.388922,3.5,french,Western European
555,g1UVmCOhQDY7TGSZ2rRT_w,Congee Queen,3850 Sheppard Avenue E_ Unit 425,43.7837517175,-79.2927074432,3.5,chinese,East Asian
556,Jo3Cpvf8fpfcAIFG3TagbQ,Pantheon Restaurant,407 Danforth Avenue,43.6775523,-79.3513343,4,greek,Southern European
557,FeC5DeqINOSr37y5TABnKA,Parkette,874 Queen Street W,43.6451986,-79.4143964,3.5,italian,Southern European
558,opy1am7eajjAO2-eyojoIw,McDonald's,29-31 Woodward Avenue,43.6650429,-79.3190921,2,burgers,American
559,sGyxho4L87V465XySbBrIw,SU&SHI Noodle Bar - Yorkdale,3401 Dufferin Street,43.7261932,-79.4541313,2.5,japanese,East Asian
560,fE-dFRyFWP4ZiijhCEMxIg,Café By Kwin,1 De Boers Drive_ Suite 108,43.7514057,-79.4641481,4,salads,Southern European
561,5x2dxg4LD0jgSBypGrUePw,Hrvati Bar,690 Euclid Avenue,43.6647129013,-79.4151395559,3.5,burgers,American
562,vOUIiRfyA9jtra7Hez6mpg,Everest Cafe & Bar,232 Queen Street W,43.6501835,-79.3901876,3,himalayan/nepalese,South Asian
563,IVAI4jFwRANbNCST-yhAHQ,Crazy Wings,5600 Yonge Street,43.779499148,-79.415820837,3,korean,East Asian
564,i1Xkm22_96GNVVOXSUoL0A,The Captain's Boil,5313 Yonge St,43.7733186,-79.4135718,3.5,cajun/creole,Western European
565,q9duLwWQtP7nCJi4bgutUQ,The Queensway Grill,1045 The Queensway,43.6228202,-79.5179787,3.5,canadian,Canadian
566,NocyBdVknfXDDLTPg8wRpw,Amaya Express,263 King Street E,43.6512362,-79.36759,2.5,indian,South Asian
567,-a6tEeSq2YJyJNqq6TyMlA,Hamaru Sushi,5469 Yonge Street,43.7778627,-79.4148279,4,japanese,East Asian
568,vzjmi_Cxom5b1OVQC3B6MA,Indian Spice Kitchen,748 Markham Road,43.764895,-79.2272949,4,indian,South Asian
569,KbNmZoTFUm22rIWSJe6cEQ,Moe Pancer's,3856 Bathurst Street,43.740755,-79.43535,4,sandwiches,Northern European
570,171c2z28JaSYQtWimiZ62A,Indian Bread Bar,3305 Yonge Street,43.7302042,-79.4032923,2,indian,South Asian
571,n_-CwlqV8fzEIUPky8Ibtw,The Oxley,121 Yorkville Avenue,43.6707168,-79.393126,4,british,Northern European
572,UGdWxNc3QKOoOkQziZj_6Q,Taste of Thai House,62 Vaughan Rd,43.6824463,-79.4199476,3.5,thai,Southeast Asian
573,SmC81VivEYb_ykiek_p1kA,Burger Palace,2900 Warden Avenue,43.7999668,-79.3179852,3,burgers,American
574,b07QUKi2J1LGIiDCZkyCDw,Big Jack's Burger Shops,179 Parliament Street,43.6558665,-79.3643779,3.5,burgers,American
575,S0kSNTst3TRWn3NbE0eGSA,Montgomery's Restaurant,996 Queen Street W,43.6443769,-79.4184651,4,canadian,Canadian
576,EX_NM_g9zjVa-6hH6HrElw,In,5460 Yonge Street,43.7777557373,-79.4156494141,3,korean,East Asian
577,mX-c2m8zSQkRqVAnFCwcig,Green Fusion,403 Yonge Street,43.6594369,-79.382098,3,vietnamese,Southeast Asian
578,G1XEyjiV7QThOgSrHaDcRg,Cafe Gelato,2494 Yonge Street,43.7119868981,-79.3996310234,4.5,sandwiches,Northern European
579,hc7bFjQ0JtwfZhKDG_xJiA,Appalachia Smokehouse Barbeque,2416 Lake Shore Boulevard W,43.6146370266,-79.4890316584,3,barbeque,American
580,xhKsKC1ngojo8-J43UZmDA,Barcelona Tavern,109 Atlantic Avenue,43.6397814,-79.4206753,3.5,spanish,Southern European
581,xpJEBXTCQh5Ib8BJrjt9Bg,Louis Cifer Brew Works,417 Danforth Avenue,43.6775849,-79.3511407,3,canadian,Canadian
582,6n_MDeYxU1ihB38be9TkVA,Sushi On Bloor,515 Bloor St W,43.6655273,-79.4088632,4,sushi,East Asian
583,8JjMwVXIyfv4P0awqAqQgw,Kokoni Izakaya,459 Church Street,43.6641927,-79.3801959,3,japanese,East Asian
584,V01onLi7ezGFSeoaosfw1g,V's Schnitzel House,448 Browns Line,43.6021635,-79.5457598,4,slovakian,Central European
585,gyPmHqIqC5-RAAy51oiafQ,The Cloak Bar,488 Wellington Street W,43.6435936,-79.3985027,4,tapas,Southern European
586,1J7B86tBk2nIzWMoGFSq0w,Bâton Rouge Steakhouse & Bar,277 Front Street W,43.6433142625,-79.3884122468,2.5,steakhouse,American
587,D1lAVtlav4atQTJnIvtcpw,Taverna Mercatto,120 Bremner Boulevard,43.6426722096,-79.3827601467,4,italian,Southern European
588,Q42PBQkiRwj4k5pU29ZhgQ,Burger's Priest,3280 Dufferin Street,43.720807128,-79.4562048465,3.5,burgers,American
589,h2LDxrB2hphlIAHur8gR9Q,Olympic 76 Pizza,8 Gloucester Street,43.6667484716,-79.3847360586,4,pizza,American
590,Qme4ZWzZEdZUwnpo-sPPIw,Noodle Bowl,348 Bloor St W,43.6667336,-79.4045893,2,chinese,East Asian
591,lF5m5NQePUtZidiRzNOVNQ,Falafel Queen,576 Queen St W,43.6474458,-79.4036775,3,falafel,Middle Eastern
592,0FH5h58Qls1VIuXh5QORlg,El Sol Mexican Art Cafe,1448 Danforth Ave,43.6829474,-79.3265169,3,mexican,Latin American
593,SaI-99XOm7LMStUrjyG4jw,McDonald's,100 Wellington Street W,43.647099,-79.382649,4,burgers,American
594,45asFhMTFuAUtG_rjPhkkQ,The Bowl Korean Food,12 Saint Clair Avenue E,43.6885625843,-79.3939797792,3,korean,East Asian
595,aPAljlYaHdDDKZngS5I2UQ,Paramount Fine Foods,1090 Don Mills Road,43.7364289,-79.3442674,3,lebanese,Middle Eastern
596,SMQSeTvs172iOipBRxeS1Q,Pizza Nova,4847 Leslie Street,43.779366,-79.364287,4,pizza,American
597,fd0xELX7-1qth_yFl7Q9UQ,La Tortilleria,68 Wales Ave,43.6529432,-79.4041094,3.5,mexican,Latin American
598,o5t33JVLpZWf269AEPB95Q,Greens Vegetarian Restaurant,638 Dundas Street W,43.652093,-79.402622,3.5,chinese,East Asian
599,klfds_dA25_VeKFuW5o9Xg,Wenona Craft Beer Lodge,1069 Bloor Street W,43.6602993,-79.432812,4,canadian,Canadian
600,EY4xsGDe0euyusOfAb3Cwg,The Fresh Italian Eatery,42-109 McCaul Street,43.6542188964,-79.3907314539,4,italian,Southern European
601,6oq1tUbRkfC7Qye2SrdxMw,Tucker's Marketplace,15 Carlson Court,43.6890313,-79.5851311,3,american,American
602,jVefoZbu5VF80CCB1Q2MaA,Little Sister,2031 Yonge Street,43.7015676,-79.3970751,3.5,indonesian,Southeast Asian
603,vAUEebTSlyYVTO7SgyT4cg,Burger Shawarma,1015 Dufferin Street,43.6602391,-79.4352958,4,burgers,American
604,hrKpyKLTfSXHiNtuj1T_HA,Boar,3 Glebe Road E,43.7011239,-79.3970761,4,sandwiches,Northern European
605,Wf5C8Amv_SlhoYE3_W66WQ,Oishi Sushi,1325 Finch Ave W,43.7635097,-79.4907499,2,sushi,East Asian
606,N6CJerqD19UIZ51J7-hgDQ,Gingerman Restaurant,1104 Victoria Park Avenue,43.707776,-79.296167,4,canadian,Canadian
607,HHvO4MgBFabsmlInou6viQ,Le Baratin,1600 Dundas Street. W,43.6500784,-79.4351396,4.5,french,Western European
608,yj-abQ_WQakkBcbIaEmHOg,Courense Bakery,1014 Bloor Street W,43.6609655,-79.4308594,3.5,portuguese,Southern European
609,D_Hwxo6zhVHJTtOGJ7pGhw,Yaki Kushi Bar,525 Bloor Street W,43.6654488,-79.4092323,4.5,japanese,East Asian
610,m_5-Klux3KcRQVo1EOtcig,Evoo Ristorante,138 Avenue Road,43.674457,-79.3968168,4.5,canadian,Canadian
611,WtLUaAAZyD6vyFXO3xLrsw,Hell's Chicken Restaurant,6080 Yonge Street,43.7908806,-79.4188945,3.5,korean,East Asian
612,SEG56Wws3Wb2AXyz-eohlQ,The Keg Steakhouse + Bar,5015 Yonge Street,43.7664822466,-79.4118910655,4,steakhouse,American
613,kmPZPIbulnOv3Btg9YGWrA,Trapezzi,505 Danforth Avenue,43.6781015,-79.3489693,3.5,italian,Southern European
614,oh43pPg1tblUzUiBbpSPQg,Hungry Amoo,74 Ossington Avenue,43.645880964,-79.419598684,4.5,canadian,Canadian
615,UZilBC8-jkGrR8y9AFrCgA,Maker Pizza,1537 Avenue Rd,43.7229841,-79.4153087,4,pizza,American
616,A8yT6LIlgRn18p1qbW9-ZA,Pamier Kabob,119 Spadina Avenue_ Unit 101,43.6472101935,-79.3954726614,3.5,afghan,Multicultural
617,p9TA-qkvrTGqt4WvLLywfw,Pappa Roti,270 Spadina Avenue_ Unit 3,43.6524031679,-79.3980716541,3,sandwiches,Northern European
618,TUMMUJ_W3JqPpfU_D_Hscg,South Sea Village Chinese Restaurant,1 Glen Watford Drive,43.786027,-79.2760491,4,chinese,East Asian
619,HvkPnvoyyOEesBkZ8gkOIA,Ehwa J Bar,16 Isabella Street,43.667825,-79.385215,4,korean,East Asian
620,z9SjyM0Ixr1ud8zI7Y93-A,The Cups,5418 Yonge Street_ Suite 12,43.7754662,-79.4149038,4,sandwiches,Northern European
621,P2k0pcg7Q1LjfENOpoNQsg,Roll House,648A Bloor Street W,43.6643515,-79.4153597,3.5,korean,East Asian
622,kzEKZmmbfCTi_3tDv_xtnw,Dairy Queen Orange Julius,280 Spadina Avenue_ Dragon City,43.6523986,-79.398554,4,sandwiches,Northern European
623,TVtnQyn3ka60r2t9xRwKPQ,Los Guaca-Moles,690 Euclid Avenue,43.6645463785,-79.4153123668,4,mexican,Latin American
624,Kxop0nGA-BUrwYD4EGhyPA,Chinese Traditional Buns,536 Dundas Street W,43.6529547,-79.3991357,3.5,chinese,East Asian
625,h9dkFKgCTKBFnFQ8p_Tycg,Café Bernate,1024 Queen Street W,43.6441585,-79.4191706,3,sandwiches,Northern European
626,DuzxF9yWIxYqt4jDKw_bbA,Pan On the Danforth,516 Ave Danforth,43.6783585,-79.3486848,3.5,greek,Southern European
627,d_AcktF-fWL9zzvNPg7euQ,Simone's Caribbean Restaurant,596 Danforth Avenue,43.6787481,-79.3465337,4.5,carribean,African
628,LRG2U-tPfwnbBRQUYZfcjA,Sully's Sandwich Kitchen,821 Gerrard Street E,43.6671025,-79.3445471,4.5,sandwiches,Northern European
629,h_PKFKAnrjiEy-jvF0Gv7A,Ben Wicks Restaurant,424 Parliament Street,43.66283,-79.3675405,3,canadian,Canadian
630,ozeTqG7SflAfY3oL8jQ_qg,Sunset Grill,205 Wellington St W,43.6453032,-79.3882029,3.5,canadian,Canadian
631,RXyM7VrCiEFthJxQ4bGmBg,Sambucas On Church,489 Church Street,43.665132,-79.3803227,3.5,italian,Southern European
632,ckDYUwoG2WVsF3UCZLItLg,Pho 88,270 Spadina Avenue,43.6521744,-79.3980351,3,vietnamese,Southeast Asian
633,7vl54MQuqZQlNj4IYakwVg,Rione XI,672 St Clair W,43.6819871,-79.4255269,4,italian,Southern European
634,jCiovc2qHJ5L-_1gigLueQ,Weslodge,480 King Street W,43.6454236,-79.3962213,3.5,canadian,Canadian
635,dYJ7uBteyJiNHCLyK1ZOoQ,Kenzo Ramen,671 Queen W,43.6469635,-79.4046878,3.5,japanese,East Asian
636,LI2gZ017EM3_5gy8Z1QR9w,Sorrel,84 Yorkville,43.6711713,-79.391593,4,french,Western European
637,v9DncDynhn7f-RBURtcSFw,Sushi & Tea,3027 Kingston Road,43.7259036,-79.2303772,4.5,sushi,East Asian
638,0Mhw1lD_Zwsv4Vo6oQrPWA,Wah Too,58 Centre Avenue,43.6547315,-79.3872286,3.5,chinese,East Asian
639,wuYKpHyjIfyvMR9YlwHn6Q,Dino's Wood Burning Pizza,820 The Queensway,43.6252431,-79.5082823,4,pizza,American
640,JccZKQS8-5Oikp0u30zZ8g,Skin+Bones,980 Queen St E,43.66142,-79.339734,4,canadian,Canadian
641,8LPSNhBdfQ3NT9u7roObVg,Second Cup,2 St Clair Avenue E,43.6882995046,-79.3938726171,3.5,sandwiches,Northern European
642,cW4IU7Kq6fXI4pDIYDz3tA,The Puck Sports Bar and Grill,362 Bloor Street W_ Suite 3,43.6664410356,-79.4056578331,3,american,American
643,dU7SLTS6_HWo1YPHZ4DmOw,L'Avenue Bistro,1568 Bayview Avenue,43.7054392,-79.3752374,4,french,Western European
644,205IU_t4t0kzCfHN06fyKg,Le Rossignol,896 Queen Street E,43.660498,-79.3429538,4,french,Western European
645,ES8JP18I4sz72HEAWjk_KQ,Vero Trattoria,1580 Bayview Avenue,43.7056914,-79.375337,2.5,italian,Southern European
646,WoiF62tItSFtgO6gLrj_Hg,Caroline's,554 Parliament Street,43.6669665,-79.3690648,1.5,italian,Southern European
647,emIpCWPxCdyuGtjVIK0LEg,Sakura Japanese Restaurant,109 McCaul Street,43.6537184,-79.3909035,3,japanese,East Asian
648,zew94PCbpWKFTldA04Wx8w,Parcae,348 Adelaide Street W,43.6472265,-79.3932255,3.5,canadian,Canadian
649,HrpUTslC8C3icEgaDD6oIw,Allwyn's Bakery,976 The Queensway,43.6240062,-79.5142003,4.5,carribean,African
650,DvXpWBz5_-hZQuvu-RnSwQ,The Food Shop,209 Augusta Avenue,43.6540622,-79.4014786,3.5,italian,Southern European
651,CDsYDpAcfDE_81OHRjVIHQ,Thai Naka,2440 Kingston Road,43.7092648,-79.2495759,4,thai,Southeast Asian
652,1W_gZM_uuEvJqapbIl6z9Q,El Charro,788 Broadview ave,43.6771428,-79.3590065,4.5,mexican,Latin American
653,7ODXq--HE7QpzvWwgk5rMA,Barberian's Steak House,7 Elm Street,43.6575924,-79.3821624,4,steakhouse,American
654,Vf_RHj0f1VViEF6OYnEfUA,Quinn's Steakhouse & Irish Bar,The Sheraton Centre_ 96 Richmond St W,43.6510886,-79.3829192,3.5,steakhouse,American
655,wC-6zUGK5Cx3qW8IjvJxpw,Mayday Malone's Pub & Ristorante,1078 Bathurst Street,43.6724821,-79.4143711,3,italian,Southern European
656,2MMRdPAQDI_6VYQUdIjSzg,Xococava,1560 Yonge Street,43.6896565,-79.3948507,4,canadian,Canadian
657,CvsTfS2pIWwZbwusZL4x0Q,Swiss Chalet Rotisserie & Grill,900 Dufferin St_ Unit 3,43.6562242,-79.4355773,2,american,American
658,S8H-VShWsIUqyPoqI5Rvbw,Zupa's Restaurant & Deli,342 Adelaide St W,43.6473873,-79.393122,3,sandwiches,Northern European
659,MUjlAtBNJR--7ai5pITbMg,Bar Mercurio,270 Bloor Street W,43.6674817706,-79.4006463811,3,italian,Southern European
660,WsPFR0JSg0z_dZbDhl0Zqw,Hue's Kitchen,1226 King St W,43.6388353,-79.4284129,2,vietnamese,Southeast Asian
661,PjtX-5vSTBVyWfMREX8bRA,Capitano Burgers & Gelato,645 Yonge Street,43.6679169,-79.3856822,4,burgers,American
662,04HfzvvANCF3hd-yx6ZACw,Sharon Garden,3601 Victoria Park Avenue,43.8036003113,-79.3356246948,3,korean,East Asian
663,VrwgzhOy05GpkEwEsKWTDA,Harbour Club,99 Harbour Square,43.6395749,-79.3791677,3,canadian,Canadian
664,Bf2fuqWbHd3L-X69FSMvmg,El Trompo Taco Bar,277 Augusta Ave,43.6559148,-79.4023148,4,mexican,Latin American
665,IFSpBHfexPosFGzsA9rTTQ,Domino's,404 College Street,43.6568338756,-79.4061757086,2,pizza,American
666,pLWt3bWwQ9NPvk_xv8Dzgg,Sadie's Diner And Juice Bar,146 Baldwin Avenue,43.6550976,-79.399412,3,donuts,American
667,WpK-mZ7w-304c78MOEYH6A,Mai Bistro,4906 Dundas W,43.6490027,-79.5285543,4.5,tapas,Southern European
668,sJjawlWJe1x5SaccDzfUZA,Fu Kou Le Chinese Cuisine,668 Silver Star Boulevard,43.8226820152,-79.3009538949,2.5,chinese,East Asian
669,Yk-M1qkLN_QNHUhxBtO4bw,Roll,5 Northtown Way_ Unit 10,43.7748598,-79.4135222,4,korean,East Asian
670,5OAO9TxfvsvccFFD4pjmeg,Chacho's Fine Mexican Dining,234 Merton Street,43.6977184,-79.3891344,3.5,mexican,Latin American
671,r2qLNZaYTZKjvVXfXB1BLQ,The Bowl Noodle Bar,633 Silver Star Blvd_ Unit 110 & 111,43.8104299,-79.2933883,3,chinese,East Asian
672,wWry6ceFOu0pSmzPpDJQcA,A Xiang,3250 Midland Avenue_ Suite G106,43.8046042448,-79.2878653854,3.5,chinese,East Asian
673,I7OoXce8vwFcaIeyxaTK_A,Pho Xyclo,459 Church St,43.6641927,-79.3801959,4.5,vietnamese,Southeast Asian
674,YH3CqDfef3eB-K_L7Mg-5g,Pho Indochine,568 Parliament Street,43.6674228,-79.3694556,3.5,vietnamese,Southeast Asian
675,A6aktZiodqq8b3Nl_ghZ1w,Subway,20 Bathurst Street_ Unit 13,43.6372488245,-79.4002568701,3.5,sandwiches,Northern European
676,iYqdskuBP-CVnj6Mh4Mkzg,Alexandros Bar and Grill,865 Bloor St W,43.662098,-79.4246715,4,greek,Southern European
677,-TjzQsimpriXVYaH3HdtQA,Fanzone Wings & Ribs,1168 Kennedy Road,43.7530567,-79.2762336,4,american,American
678,T4g4k2OhCTsiqcP-ZXElHQ,Jules Bistro,147 Spadina Avenue,43.6481372,-79.3956847,4,french,Western European
679,L_JIwCB8OeZLiHWg6VTydA,Food Kingdom,4675 Steeles Avenue E,43.8236529001,-79.3024287581,2.5,chinese,East Asian
680,zy-JsMCeTlY71akNeBuLvg,Senior's Steak House,1397 Yonge Street,43.687081,-79.3935286,3,steakhouse,American
681,_U9_mzobQzDQygH50NoxUw,VEDA - Healthy Indian Takeout,In the University of Toronto Multi-faith Center_ 569 Spadina Ave,43.6610444,-79.4011647,3.5,indian,South Asian
682,b7wUWVV01xaa7E0FUNMDiw,DaiLo,503 College Street,43.655849,-79.4098724,4,chinese,East Asian
683,Auj0qSYqgt-T5Gd0HhA2Rw,Bubble Tease,25 Carlton Street,43.6610457,-79.3816605,3.5,chinese,East Asian
684,B9QJToIrPjRAUuPoemMUNg,Chandni Chowk Restaurant,1430 Gerrard St E,43.6724944,-79.3223943,4,indian,South Asian
685,c7wwhjj0kmmDvEssl6qJ0Q,Bashu Sichuan Cuisine,4771 Steeles Avenue E,43.82527,-79.2988852,3.5,chinese,East Asian
686,g6GXqg-QdDiQGLYMVqNOUw,Hapa Toronto,602 College Street,43.6552874,-79.414286,3.5,japanese,East Asian
687,6lpBxSRXScCHnOsOvLWS9A,D' License to Grill,1438A Gerrard Street,43.6723558,-79.3218342,5,indian,South Asian
688,SnOVk0WN4BpW9NonUjcuew,Room Service Toronto,1006 St Clair Avenue W,43.6793591,-79.4374897,3.5,carribean,African
689,ee2oE4eBA_M5Zi4X7p5WyA,Piazzetta Trattoria 3,2459 Yonge Street,43.7114013,-79.3993216,2.5,italian,Southern European
690,CZo5aeQpv55NKf0VG9wWEA,Wild Wing,107 Church Street,43.6526911,-79.3754128,3,american,American
691,Yq1urC7iKqM5D5tyhXCRLQ,The Dock On Queen,932 Queen Street E,43.6609268,-79.3415833,5,sandwiches,Northern European
692,UL-FJ_EMbtjfoRNA7id_Ig,Gare De L'est,1190 Dundas Street E,43.6651634,-79.3410685,3.5,french,Western European
693,IvSzF1r0hhTwGS1LGecGmA,Est West Cafe,700 University Ave,43.6588089,-79.3909892,4,sandwiches,Northern European
694,goihA0c0gTfhNKmgBOHYBA,Swish By Han,38 Wellington Street E,43.648368,-79.3750309,3.5,korean,East Asian
695,RIkiTtRMZASo7DmKd1vd5g,Rialto Espresso Bar,266 Adelaide Street W_ Unit 2,43.6481106,-79.3897971,4.5,sandwiches,Northern European
696,ptmG_KjwGVszU0sPpFGXJQ,Scheffler's Delicatessen,93 Front St E,43.6490516,-79.3717741,4.5,sandwiches,Northern European
697,cB7FhpOwFCn380G6WGpJzw,Golden Thai Restaurant,105 Church Street,43.6523454,-79.375276,3.5,thai,Southeast Asian
698,5aiXnA_xSCGAQIzA1Ad0rQ,Sushi & BBQ on Yonge,590 Yonge Street,43.6653871,-79.3848869,4,sushi,East Asian
699,dN3-yXUI6ybiLhO-lF5oQg,Tin Tin Congee Chinese Restaurant,4205 Keele Street_ Unit 7,43.7731087,-79.4932379,3,chinese,East Asian
700,K-tKnqhblGR7K4R3roKmqA,Kanga,65 Duncan Street,43.6499075088,-79.3892604579,4,australian,Multicultural
701,d6G0w_e3GaA90NSQeovShA,Pho Rua Vang Golden Turtle,125 Ossington Avenue,43.646823,-79.4196807,3,vietnamese,Southeast Asian
702,JCqB36SVDjTDsXp-4gBn9Q,Carousel Bakery,St. Lawrence Market_ 93 Front Street E,43.6488466757,-79.3718121075,3.5,sandwiches,Northern European
703,zV_9MraCltzUgNFdiXq7gg,Spicy Route,4419 Sheppard Avenue E,43.7874349515,-79.2687211186,2.5,chinese,East Asian
704,LLLB4141aGIgzyMsMg_joA,The Roncy Public,390 Roncesvalles Avenue,43.6508801,-79.4508485,4,canadian,Canadian
705,TgjpcqIhZ4ONmp1AaxDLPQ,Sweet Tooth Tea House,1680 St. Clair Avenue W,43.674768,-79.4584266,4,portuguese,Southern European
706,zcSJjgxwGtcFgCvqSsULaA,Debe's Roti & Doubles,2881 Jane Street,43.7523768,-79.5163725,5,carribean,African
707,MR30dpSf2h4sScoSA8tI5A,Pizza Pizza,1063 Gerrard Street E,43.669131,-79.335314,1.5,pizza,American
708,H7kqQYQsIRtAVbr70ptKnA,Sushi Momo,1865 Leslie Street,43.7551209,-79.3602331,3.5,japanese,East Asian
709,X7_lItAV8ND1boXI5ZP4Vw,New Concept,2024 Queen Street E,43.670424843,-79.2987048626,4,japanese,East Asian
710,se_K9gbKMAECYVnE_0hc_w,Chinese Dumpling House,4188 Finch Avenue E_ Unit 12-13,43.8032556,-79.2884064,2,chinese,East Asian
711,F1Iw4k5FT5sgp7arme1qeQ,Paramount Lebanese Kitchen,161 Bay Street,43.6465766,-79.3787824,3,lebanese,Middle Eastern
712,XFU7XiXOo7LB3uPLecRlOw,Mymy Chicken,9 Spring Garden Avenue,43.7642799,-79.4109193,4,korean,East Asian
713,We_Fci0vsWOekpAVIXKpSA,Bibab Express,120 Adelaide,43.6490287,-79.3838042,3,korean,East Asian
714,VghejSa_mjn-W7BfGQsDtA,Monk Kitchen,348 Adelaide Street W,43.6472413,-79.3931527,4,canadian,Canadian
715,m7PPpShEdfhtV-7NnPN1Nw,Duke of Kent,2315 Yonge St,43.7079328,-79.3982691,3.5,british,Northern European
716,ELt26I6N0VqVywR5J4TMlw,Mong-Kut Thai,471 Danforth Ave,43.6777822,-79.3500334,3,thai,Southeast Asian
717,1kLBRbYQRJN7SQXLF98RKA,The Saigon Hustle,406 Queen Street W,43.6486829,-79.3973288,4,vietnamese,Southeast Asian
718,L_GiRGKnEUMW56cRskf5Mw,The Stone Pizza,,43.653226,-79.3831843,4,pizza,American
719,AS-WRS4sUuVuu6ErCIetXg,Parwan Kabob,2650 Lawrence Avenue E_ Unit 2A,43.7524762,-79.2639726,4,afghan,Multicultural
720,JPOsmsL_MNPYQsJaz2wq3A,McDonald's,123 Yonge Street,43.6509255,-79.3782553,3,burgers,American
721,aXnWWp6Reaep4-0iKWlYHQ,TKRE - The Kathi Roll Express,692 Yonge Street,43.6676511,-79.3859029,3.5,indian,South Asian
722,2OFWvbHVwvnva7GxP4wHQg,Pam's Caribbean Kitchen,912  Bloor Street W,43.6619057,-79.4265158,4,carribean,African
723,xsl-d_opm3AU5H2Z-im33g,College Falafel,450 Ossington Ave,43.6546463,-79.4229379,4,sandwiches,Northern European
724,H6cWqEXchVUEJHbi_EHUUg,Copetin,107 King Street E,43.6498379,-79.3739662,4,canadian,Canadian
725,la4mM0mSexjkOLe1goXJPg,Hotopia Sichuan Cuisine,25 Spring Garden Avenue,43.7644706,-79.4103279,3,chinese,East Asian
726,9Auncrq-xGueTzgkGO1AkA,E Pan Chinese Cuisine,369 Spadina Avenue,43.6558216,-79.3986901,3,chinese,East Asian
727,sGl_RLXLtSPx5kzMUFz11Q,Alimentari Italian Grocery,325 Roncesvalles Avenue,43.6488048,-79.4497251,5,italian,Southern European
728,XH2FCZmsisDc8-oPw_ygHg,Denny's,121 Dundas Street West,43.6553706487,-79.384432286,3,american,American
729,UmOXUUbw-76FIPNsE3EoeA,Scratch Kitchen,3471 Yonge Street,43.7342035238,-79.4043532473,3,canadian,Canadian
730,1SBQZNmv8Q4PUfip-oCJyQ,South St. Burger,1542 Avenue Road,43.7230841,-79.4161395,2,burgers,American
731,oD6-YmPo5xDR8XrDF9gbZQ,ALAN Shish Kebab,856 Sheppard Ave W,43.7526584473,-79.452411257,4,russian,Multicultural
732,-q6tWH0IvXGtZx6U5E_9yg,Green Mango,707 Yonge Street,43.669347,-79.3860446,3,thai,Southeast Asian
733,vvA99tqHFMVgHnB7WmhO1w,Sandwich Box,37 Eglinton Avenue E,43.7067926,-79.3968422,4,sandwiches,Northern European
734,nLBYO2uLPHzZ9pceGmlwNA,Druxy's Famous Deli,777 Bay Street,43.660489,-79.384447,2,sandwiches,Northern European
735,wOYcVJCjl9F7EKOe-Vpezg,Caribbean Chophouse,4045 Sheppard Avenue E,43.7835431,-79.2866707,3.5,carribean,African
736,z9SkYzD6RkmsdDw1qq3uXA,Pizza Park,733 Bloor Street W,43.6633496,-79.4185625,3,pizza,American
737,i2O5tXByY_m5cSeV3dKu-w,Freshslice Pizza,5223 Yonge St,43.7714997,-79.4129221,3,pizza,American
738,WP2qPWJ4D3zzStq7myUA9A,Subway,235 Bloor Street E,43.6712047039,-79.3805888142,2,sandwiches,Northern European
739,Zuwzb89m5JfOGyPgknSbCQ,Cafe Cinquecento,791 King Street W,43.6429425,-79.4067972,3,italian,Southern European
740,IfUPAiF3qMPi27gi-_UZzg,OPA! of Greece North York City Centre,5150 Yonge Street,43.7686976,-79.4131633,3.5,greek,Southern European
741,tGoYMqmOUhZsQpdNnbllQQ,Quiznos,115 Yonge Street,43.6507016,-79.3783046,3,sandwiches,Northern European
742,gVILTnDFDsVuVdxFVkRK7A,The Captain's Boil,1800 The Queensway_ Unit 5,43.6156501,-79.5587629,4,cajun/creole,Western European
743,U_-j8L1rXbucWWZDLpYAAg,Ali Baba's Middle Eastern Cuisine,2202 Dundas Street W,43.6537122,-79.4512884,4,salads,Southern European
744,WnRqXZN_tR058EufqS1kAw,TYC - The Yellow Chilli - By Sanjeev Kapoor,55 Eglinton Avenue E,43.7068418,-79.3959794,3,indian,South Asian
745,-dSfSU0Nwwh2b0aLo5ifyw,Kebab 49,5308 Dundas St. W,43.6358945,-79.5402575,3,turkish,Middle Eastern
746,HcO6gAwDePNiJ-LKeoKYaw,Magic Oven,798 Danforth Avenue,43.6797379,-79.3416014,3,pizza,American
747,mAyxJYQ4YcY0R7Crw4tSMA,Chinese Feast,4830 Sheppard Avenue E,43.792427,-79.2498596,4,chinese,East Asian
748,PKNzQKJrl5328yWidZbzpw,Caffe Demetre,188 Eglinton Avenue E,43.708324,-79.3927485,3.5,waffles,Western European
749,uQDVjBcG6t3t-5hSQnZ4lQ,La Tortilleria,835 Kipling Avenue,43.6328723,-79.5313258,2.5,mexican,Latin American
750,X5WAjBmplMkRgzhqQ3UA4g,Auntie Bell's Jamaican Cuisine,2257 Islington Avenue_ Unit 4,43.7160517,-79.5537676,3,carribean,African
751,P_OfKffPc3EUSZ44lZKO-Q,Tasty & Tasty,1883 McNicoll Avenue_ Unit 7-11,43.8123499385,-79.3014621735,3,chinese,East Asian
752,y35FkLcNKlGt23tRwI8VoQ,Fujiyama Japanese Restaurant,49 Baldwin St,43.6558431,-79.3938967,3,japanese,East Asian
753,lsfFzCl7SXgoq8N5NjbvZA,Parmigiano Trattoria,3186 Yonge Street,43.727844,-79.4031035,3.5,italian,Southern European
754,UcUEUd7a-vnHk14HcVgpDg,Il Fornello Restaurant,207 Queens Quay W,43.6392865,-79.3808801,3.5,italian,Southern European
755,ngRLl-vKZxkA2VLQvTFuCg,Thai To Go,452 Gerrard Street E,43.6633444,-79.3607037,2.5,thai,Southeast Asian
756,3G4KcScA5srgsg-fAtWs2Q,Tokyo Grill,582 Yonge Street,43.6651953,-79.3849242,3.5,japanese,East Asian
757,y2wrX3q3guKjThi7HIRETg,Sheba Ethiopian Restaurant,418 College Street,43.6568341,-79.4069059,3.5,ethiopian,African
758,zvezLicNkf8tTqZyYhP83w,Green Grotto,832 Bay Street,43.6619270654,-79.3865113333,3,taiwanese,East Asian
759,2lCjKqGK2s4FrJVPjJK1fg,Cafe Jules,120 Peter Street,43.6483797133,-79.3931475329,4.5,french,Western European
760,-HXOZtMZWtTtzBcEswNZ8w,Vietnamese Noodle House,2461 St Clair Avenue W,43.6689833,-79.48356,4,vietnamese,Southeast Asian
761,K_sbl7yJnDE-zqkGB7NxeA,Big Bite Burrito,4045 Sheppard Avenue_ Scarborough,43.7833779,-79.2864764,3.5,mexican,Latin American
762,dYQaLCEog1QpQShowSVZig,Lee Town Chinese Restaurant,370 Yonge Street,43.65855,-79.382072,2.5,chinese,East Asian
763,EXd0QOsqz6sAOUjMJba_9w,Ginger Restaurant,212 Queen Street W,43.6503648,-79.3892282,3.5,vietnamese,Southeast Asian
764,6c7DPOemJyPfDdKQ-Wfgmg,Pita Pit,235 College St,43.6582842,-79.3979864,3,sandwiches,Northern European
765,AOhJfJVuEPUh_in7WHDnzQ,Subway,1506 Yonge Street,43.6889196,-79.3945875,1.5,sandwiches,Northern European
766,S0ekW-gI5jKtMokyra5oZA,Suruthi's Take Out & Catering,585 Parliament Street,43.667422,-79.369103,4,indian,South Asian
767,EwoQiXlVP868y7j2lP46vQ,Loch & Quay,390 Queens Quay W,43.6384582,-79.3906356,4.5,american,American
768,NhltyeTQSLCwnTSkGFl6bA,Tim Hortons,175 Bloor Street E,43.6709560983,-79.3825904295,4,donuts,American
769,A8Mw21Wxt4Ao-3aA-a5feQ,Olio,801 Dixon Road,43.6870734407,-79.586808909,4,greek,Southern European
770,7ZBh-3wWVQ5zkd6KZytW0g,Cibo Wine Bar,133 Yorkville Avenue,43.6704745,-79.3936313,3,italian,Southern European
771,DuDZ4FZ_UxGQ-3GPuk8iJw,Amaya,200 Simcoe Place,43.6450483,-79.3856971,1.5,indian,South Asian
772,0pHBqJT0mzu9bO6D33Byug,Alio Restaurant & Wine Bar,108 Dundas Street W,43.655728,-79.384169,3,italian,Southern European
773,P8NV_z-dWmUbs3LZ7Jr5aA,Presse Cafe,85 Bloor Street E,43.6704472,-79.3844575,3.5,sandwiches,Northern European
774,dTZZOXlntz3i1gyW0BFp-Q,Thai 4 You Restaurant,1675 Bloor St W,43.6552086,-79.4567337,3,thai,Southeast Asian
775,s4OOk_mXRHVNxWmhZX_rZg,Maharani Indian Cuisine,1170 The Queensway,43.6223524,-79.5215779,3.5,indian,South Asian
776,OY28pLbCh37_5sJIGjHO8A,Sarah's Shawarma & Falafel,487 Bloor Street W,43.6657651,-79.4077023,3,falafel,Middle Eastern
777,D0TsIM7U5UfvZ8dBdFi4sg,Mr Tonkatsu,6048 Yonge street,43.7901852,-79.4181563,3.5,japanese,East Asian
778,DIVF4oo86EGupm5CC60sZg,Hunters Landing Bar Grill Hub Restaurant,82 Fort York Blvd,43.6399996,-79.3966205,3.5,canadian,Canadian
779,-b94nkPVLQw95zgtDhcpYA,The Works Gourmet Burger Bistro,60 Wellington Street E,43.6484924,-79.3738547,3.5,burgers,American
780,xpxG0nNgzITjPaPwBieKtA,Starving Artist,505 Mount Pleasant Road,43.7015350897,-79.3872093555,3,waffles,Western European
781,ZCdXbef51G3yyjVEXB7AYw,Alanoor Afghan Kabob,3595 Sheppard Avenue E,43.7804142,-79.2984859,3,afghan,Multicultural
782,rO3lZpVSoRMhhd0AEJBjlg,Sunrise House,661 Bloor Street W,43.6640675,-79.4156677,4,korean,East Asian
783,HUMTJtPm5szkWZE-T24K7g,Xe Lua Restaurant,625 Gerrard St E,43.6656672,-79.3509312,3.5,vietnamese,Southeast Asian
784,0yr2L_2CVaLV9SLIGWngPA,Cafe Cocoro,1989 Danforth Avenue,43.6850218,-79.3148783,4.5,korean,East Asian
785,VBcmyBxAPcpzbbnPbFfttA,La Bettola di Terroni,106 Victoria St,43.6521997,-79.3781549,3.5,italian,Southern European
786,D0l0u9DCnC62qmXaah4BWg,Panzerotto Pizza,345 Bloor Street E,43.6719457,-79.3786297,2,pizza,American
787,fvlFgK_WD226YJ-ZQkPAOw,Ha Long Bay Bistro,525 Eglinton Ave W,43.7033552,-79.4139248,3.5,vietnamese,Southeast Asian
788,-coR5Ch6_HsUAfBWcuetKQ,Siddartha,734 Queen Street E,43.6592752,-79.3490257,3.5,indian,South Asian
789,tMMEhYse_vbL-hBaI9pIug,St. Louis Bar & Grill,561 Danforth Ave.,43.6782674,-79.3470562,2.5,american,American
790,uNH6CTVyrLdzf9e2Gw7z5A,Planet Pizza,339 College Street,43.6571629,-79.402669,2,pizza,American
791,Z7X-Z1W3SuLwyycv1G6BAg,Chit-Chat-Play Food & Games,4630 Kingston Road_ Unit 9-10,43.77543,-79.1789256,4,waffles,Western European
792,kPtn989-8fkWLB-5Y-JJPQ,Nigiriya,897 Millwood Road,43.7035053,-79.3642435,4,japanese,East Asian
793,nIwtGMkMyx0elLxVFs1D6A,Aztec's Mine,1986 Bloor Street W,43.65302,-79.4684988,4,mexican,Latin American
794,_kgk_9chyFpTWbSbPoY8YA,Ahzimae Zipbap,6068 Yonge Street,43.7904543,-79.4186923,4,korean,East Asian
795,D87tFO-R6U8f4-e0r4Zq_g,Yorkville Crepes,18 Yorkville Avenue_ Unit 1,43.6721931,-79.3878664,3.5,french,Western European
796,h-4BCEM4U0SM77G6DnAxJA,Marky & Sparky's Smokehouse,520 Annette Street,43.660199,-79.4797899,3.5,barbeque,American
797,xrA53WYhRCml2bMfpQ_Hig,La Palma,849 Dundas Street W,43.6512918,-79.4101199,3.5,italian,Southern European
798,LHwzyN5cllTfLuZ8v2k_Bg,Le Paradis Brasserie Bistro,166 Bedford Road,43.6750027,-79.4002993,3.5,french,Western European
799,B7yBxYH0ZHYtvrsyrrU1SQ,Steak Supreme,4033 Gordon Baker Road,43.810455,-79.338234,3,steakhouse,American
800,v1M2DI3sATaUkHfZEuDStw,Ka Chi,414 Dundas Street W,43.6537169,-79.3950274,3,korean,East Asian
801,tsG_3_3wNplQmKnZqRK-VQ,Pepper Ring Asian Cuisine,171 E Liberty Street,43.6380833906,-79.4166686664,3.5,thai,Southeast Asian
802,JqtEhMEVgG8Jx1k1EHISzA,Cafe Plenty,250 Dundas Street W,43.654782,-79.38955,4,sandwiches,Northern European
803,C6vH0qzmcerMkiJy3VO9qA,Estiatorio VOLOS,133 Richmond St W,43.6500769,-79.3848314,4,greek,Southern European
804,47WDyaBzlYK24wY1m_XnsA,Congee Phoenix Cuisine,2111 Sheppard Avenue E,43.7752481227,-79.3340937818,3,chinese,East Asian
805,OSqxmZQ3YoDm17KWXEKgew,Dundas Pizza,3088 Dundas Street W,43.6657719,-79.472741,3,pizza,American
806,7zuWSun5F8Jv2N_IFD_ERg,Grappa Ristorante,797 College Street,43.6547102687,-79.4208085465,3.5,italian,Southern European
807,pAIy8b_fW0escRkppyUVEA,Brown Bag Sandwiches,377 Church Street,43.6611762,-79.3789193,4.5,sandwiches,Northern European
808,Lsp3T9b1yodzFCdptZbB4Q,Wendy's,2013D Lawrence Ave W,43.700953,-79.511656,3.5,burgers,American
809,gCbS0X8w7vZ9CLWvMNXocA,Jacques' Bistro Du Parc,126 Cumberland St,43.6700941,-79.3920355,4,french,Western European
810,wo6LUARwQ5sZI-DI9XOdpw,Double Double Pizza & Chicken,2798 Dundas St W,43.6655097,-79.4627296,2,pizza,American
811,3tiEjjBtdfV5_npPNzs0Cg,Dakgogi,5310 Yonge Street,43.7729544,-79.4140463,3.5,korean,East Asian
812,tTGzLJGAceB1-fYjyjo5Eg,Bite Me Grill,730 Danforth Avenue,43.679502,-79.3429197,3,poutine,Canadian
813,NwLIEaqEz-9kcHkseLsfiQ,Mehan Restaurant,398 Church Street,43.6605244,-79.3789268,3.5,indian,South Asian
814,-uy0_2xAj-ocMIUpyRwPjA,El Barrio,234 Augusta Ave,43.6552957,-79.4024791,2.5,tapas,Southern European
815,6cIhp2atp7LSMR5ke9DOHg,Montecito Restaurant,299 Adelaide Street W,43.6474012,-79.390924,3.5,canadian,Canadian
816,yB6EN23QuMuzHyobJ6pBbg,Taco Bell,730 Yonge Street,43.6688603,-79.386331,2.5,mexican,Latin American
817,MInyfmBxVMieJPfMLbvP1g,The Commodore,1265 Queen Street W,43.641518,-79.4311483,4.5,canadian,Canadian
818,yLM3YK6sBM4xXpnF3ayGlw,McDonalds,356 Yonge Street,43.6581832,-79.3820441,3.5,burgers,American
819,T_Vjy4_Z-F0mFQMLRHDTrQ,Jerk King,522 Bloor Street W,43.6653403,-79.4102561,3.5,carribean,African
820,zTJg9_VFyXiQQ0PegucaJg,Golden House,1280 Yonge St,43.6836767,-79.3925313,3.5,chinese,East Asian
821,iqpUIj3nYlZigfojH4bDaA,Swiss Chalet Rotisserie & Grill,900 Don Mills Rd,43.7269871,-79.3414943,3,american,American
822,yQCRlPOYFo_95f1sTyxwHg,Sushi Gen,1502 Yonge Street,43.6888585,-79.3947123,3,sushi,East Asian
823,4z4vQVymdvX696SI0w2k3A,Sicily Pizza,2438 St Clair Ave W,43.6694028,-79.4828954,5,pizza,American
824,C_VoO9M9Kuhn6EObmpvWow,Slab Burgers,47 Charles Street W,43.6681819576,-79.3884232868,3.5,burgers,American
825,RpcERS2lOcIjlGWvn9vJtA,The Construction Site,2200 Yonge St,43.7066550675,-79.3987298012,3.5,sandwiches,Northern European
826,y6ccPZiVqCQkJJ0vWDYKvw,Quiznos Sub,385 The West Mall,43.6417419,-79.5651731,2,sandwiches,Northern European
827,N97-DBkCFBy69maCMkUG1A,Ten Mile Aroma,428 Dundas Street W,43.6537471,-79.3954627,2.5,chinese,East Asian
828,V0eTUwFEIK7aAV_U_OnLEg,CocoaLatte,671 St. Clair Avenue W,43.6816887,-79.4250487,4,sandwiches,Northern European
829,IGePH01LGmub7Au3V-aeuQ,Louisiana Krispy's Chicken,2573 Victoria Park Avenue,43.7740489,-79.3223373,1,cajun/creole,Western European
830,k99J9BJuHeUBNOCxV6D97A,Noble Coffee,1421 Bloor Street W,43.657146264,-79.4478765875,4.5,sandwiches,Northern European
831,NtII1vBcP1CiAs54kY1JQw,Danforth Pizza House,920 Danforth Avenue,43.6803153,-79.3388607,4,pizza,American
832,p0CsAuiW9KCW_ySDNNRW1w,Omonia Restaurant,426 Danforth Avenue,43.6779451384,-79.3509625965,2.5,greek,Southern European
833,EluIN94_26TTrTdtGI2aBQ,Pizza Thick,1026 Queen Street E,43.66143,-79.338442,4,pizza,American
834,IYeVJn_RUfyjxfRpD7QzMw,Sugo Trattoria,582 Church St,43.6668063,-79.3814013,2.5,italian,Southern European
835,826djy6K_9Fp0ptqJ2_Yag,Chipotle Mexican Grill,123 Front St_ Unit 103 and 103-A,43.6448698,-79.3830719,3.5,mexican,Latin American
836,uJTG4mzj2IY0lgNrHJUXXA,Chipotle Mexican Grill,501 Bloor St W,43.6656208,-79.4081282,3.5,mexican,Latin American
837,qRwkGEVwxrqL92rQAAlt8Q,Yeh,1617 Bayview  Avenue,43.7065371,-79.3754464,4.5,canadian,Canadian
838,Fgje0saJKZkCByBMj4SlhA,Mister Frenchy,675 Danforth Avenue,43.6789095,-79.3441877,4,french,Western European
839,uIIq8zs_37yOspXy0nBcew,Little Khao,111 Richmond Street W,43.6503522,-79.3837951,3,thai,Southeast Asian
840,aObwBM6rLOd9gbj36ghwzA,Yung Sing Pastry Shop,22 Baldwin St,43.6561821,-79.3932202,4,chinese,East Asian
841,9pWzjhdrPgsZEmF7-QOaIQ,Tacos 101,101 Dundas Street  E,43.6564404,-79.37684,4,mexican,Latin American
842,4enw_5SjmPuVpxg8MhbPBw,Taco Del Mar,366 Bloor Street East,43.6721196,-79.377898,2.5,mexican,Latin American
843,N5ODTHBMLxTYZndi-ftTFg,Bero restaurant,889 Queen Street E,43.660522,-79.3424116,4.5,spanish,Southern European
844,RS8bUYCttrW7__dy4tDMlg,i Bento,235A College Street,43.6581126,-79.3978769,4.5,japanese,East Asian
845,54wCYFNFs1jh3mx6cS4sSg,Le Pain Quotidien,18 Yorkville Ave,43.671967,-79.3879187,2.5,belgian,Western European
846,d8LRNKz3_Cc5MlEQGWZ5Ag,Upper Crust,1008 Queen Street E,43.6613875,-79.3391867,3,italian,Southern European
847,iZJ5pdY558VodrEumGyVug,Nazareth Bar,969 Bloor Street W,43.6611938,-79.4287374,4,ethiopian,African
848,VEfzBuWTF8wa6jQub5ArMw,Vindaloo Indian Cuisine,2891 Kingston Road,43.7223687,-79.2351807,4.5,indian,South Asian
849,lPaMg95YRXAqiKMsfXsuEA,Carpano,492 College St,43.6562141,-79.4097186,3.5,italian,Southern European
850,_-mGxo3NxooLN7DQWlvTYA,Fiesta India,109 McCaul St,43.6537457,-79.3910348,2.5,indian,South Asian
851,5dSrlAsETYORRe4nYmxDZA,El Taquito,1736 Jane St,43.7044608,-79.5042014,3,mexican,Latin American
852,BQDFlWHyabvHIlx6HGxR3Q,Pantry,1094 Yonge Street,43.6783169543,-79.3901964494,4,american,American
853,14I5aGqNXvHLKSKS8PAV_w,Dough Bakeshop,173 Danforth Avenue,43.6764344,-79.3566296,4,bagels,Central European
854,UCKeRO02Er8AHLWQlQ3IuA,Fahmee Bakery & Jamaican Foods,119 Montezuma Trail,43.8101261,-79.2798044,3.5,carribean,African
855,j29tuUdrfaxmGjwxHdHZPA,Tango Palace Coffee Company,1156 Queen Street E,43.6626113826,-79.3337711275,4.5,sandwiches,Northern European
856,d0hNEjOl56Q8NNnYmdBLQA,Real Thailand Restaurant,350 Bloor St W,43.6666032,-79.404831,3.5,thai,Southeast Asian
857,B70iTJjcPkuYn8ouUewWgw,Gusto 101,101 Portland Street,43.6450021311,-79.400309337,4,italian,Southern European
858,XbAxJ1aisp-Br4wgrP2eXQ,Retro Burger,2420 Eglinton Ave E,43.7324450915,-79.2689967155,4,burgers,American
859,sse9sgcNBnZoBCSSEyzDoQ,Piazza Manna,161 Bay St,43.6464758,-79.3790009,2.5,italian,Southern European
860,1M-oyCcUluxwTid8vbBSdA,M&Y Bakery,3601 Victoria Park Avenue_ Unit 122,43.8034326,-79.335554,4,chinese,East Asian
861,fwMtJhalUmtBZt_K7pzilA,Extreme Burgers,985 Pape Avenue,43.6873559355,-79.3480139226,4,burgers,American
862,PbIjlAXsM99Km2SwrDw4aw,Pizza Nova,526 Church Street,43.6647883,-79.3807374,3,pizza,American
863,kOH7_hNinrKx0v5Qc6Fp4A,Tim Hortons,537 Parliament Street,43.665773,-79.3684189,2.5,sandwiches,Northern European
864,Dj-SKw-awL_g7rHgCbCOew,Popeyes Louisiana Kitchen,523 Danforth Avenue,43.6782397,-79.3482024,2,american,American
865,2b6wzKSliV3hsRkNpHtQOg,Thai Everest,1656 Victoria Park Avenue,43.731522,-79.3054686,2.5,thai,Southeast Asian
866,fGurvC5BdOfd5MIuLUQYVA,Dumpling House Restaurant,328 Spadina Avenue,43.65379,-79.398698,3.5,chinese,East Asian
867,yGV1NHdDOmG93iy6aPpDJw,The Parkdale Drink,1292 Queen Street W,43.6419757,-79.4304835,3,sushi,East Asian
868,Q05j54VUTxVRu29CFpBfKQ,El Pulgarcito,20 Nugget Avenue,43.7926683,-79.2591224,4,salvadoran,Latin American
869,DnjcJblNc5MxwmGNQBg03Q,The Mumbai House,1698 Queen St E,43.6672561,-79.3128805,2.5,indian,South Asian
870,UrOFpcqH8Lixb2hpeJlX2Q,The Signature Kitchen,1524 Danforth Avenue,43.6831128,-79.3248315,4,sushi,East Asian
871,YrT9HFcGCJIEf0dY8-HDEQ,Pho VP,351 Jane Street,43.6573795,-79.4877128,3.5,vietnamese,Southeast Asian
872,ze-xCiBLB-QSfNXHiPY5Qw,L's Chinese Eatery,1734 Lawrence Avenue E,43.7427493,-79.3085766,4,chinese,East Asian
873,etp05l7Tfewp8AOneTcLYg,70 Down,70 Yorkville Avenue,43.6713528,-79.3909664,1.5,tapas,Southern European
874,KS_d3F_eIA6iTo6Wtj2O_w,Smoke's Poutinerie,218 Adelaide Street W,43.6485525,-79.3877564,3.5,poutine,Canadian
875,hRHnzrGCVsHItdSsapkyYg,Koza Kebab & Grill House,Center Point Shopping Mall_ 6464 Yonge Street_ Suite 164A,43.794230278,-79.4201155779,4.5,turkish,Middle Eastern
876,C16ogi6ASv-sQW3SGScmNQ,Tutti Matti Restaurant,364 Adelaide Street W,43.6473981,-79.3939269,3.5,italian,Southern European
877,tz1kE1IBPehYzDg4BtyD1g,The Bulging Burger,2459 Queen Street E,43.6733786205,-79.2836055214,4.5,burgers,American
878,VBMJjX1rPuwVvzTApRJZAA,Hot Pot Restaurant,1545 Eglinton Avenue  W,43.6974669682,-79.4413521141,4.5,carribean,African
879,PZ08ZO0-t2r1qA5WDd6wfA,Honey-Bee Restaurant,2028 Queen Street E,43.6705944,-79.2986461,2,chinese,East Asian
880,IoxLILBKAajE9kY5j8F72g,Tavolino,567 King Street W,43.6444399,-79.3994402,3.5,sandwiches,Northern European
881,9EFl_EUSaW3Qiq-8Hlc92g,Albany Pizza,222 Lansdowne Avenue,43.6490601,-79.4394354,4,pizza,American
882,FUqvrauxIP8bcI2aVeoXdg,Kit Kat Italian Bar & Grill,297 King Street W,43.6463534,-79.3901407,3.5,italian,Southern European
883,OQ9rVtBEFFI4jkdEo9AoRg,Loons Restaurant & Pub,416 Roncesvalles Avenue,43.6517304,-79.4512596,3,american,American
884,aEZ_EoArhpjV2p0q5MXFMA,Onnki Donburi,40 Hayden Street,43.6698371,-79.3846507,4,japanese,East Asian
885,RJxkhoGxTsz545_sTlDdFA,Thai Express,21 St Clair Ave E,43.6881862,-79.3929441,2,thai,Southeast Asian
886,FgHjnpJkCMj62b9P6n7Iig,Ace's Place Bar Grill Hub,113 Guildwood Parkway,43.7472727,-79.1999702,3.5,canadian,Canadian
887,Q3BUdZTMw8KRd-3QYtTyAg,Jetsun's Juicy Burger,5165 Yonge Street,43.7696613,-79.4129003,2.5,burgers,American
888,mYJ9ExVzEGbmayas5DIgKg,South St. Burger,260 King Street E,43.6522098,-79.3668394,3.5,burgers,American
889,QmZLB8eTeQ3e1BnDMan9xg,Wendy's,5095 Yonge Street,43.7686667,-79.4120948,2.5,burgers,American
